{"data":{"stations":[{"station_id":"3","station_type":"classic","name":"Colleges of the Fenway - Fenway at Avenue Louis Pasteur","external_id":"f83464e4-0de8-11e7-991c-3863bb43a7d0","eightd_station_services":[],"lon":-71.10061883926392,"legacy_id":"3","has_kiosk":true,"capacity":15,"electric_bike_surcharge_waiver":false,"eightd_has_key_dispenser":true,"rental_methods":["CREDITCARD","KEY"],"short_name":"B32006","lat":42.34011512249236,"region_id":"10"},{"station_id":"4","station_type":"classic","name":"Tremont St at E Berkeley St","external_id":"f834658f-0de8-11e7-991c-3863bb43a7d0","eightd_station_services":[],"lon":-71.069616,"legacy_id":"4","has_kiosk":true,"capacity":19,"electric_bike_surcharge_waiver":false,"eightd_has_key_dispenser":false,"rental_methods":["CREDITCARD","KEY"],"short_name":"C32000","lat":42.345392,"region_id":"10"},{"station_id":"5","station_type":"classic","name":"Northeastern University - North Parking Lot","external_id":"f834662c-0de8-11e7-991c-3863bb43a7d0","eightd_station_services":[],"lon":-71.090179,"legacy_id":"5","has_kiosk":true,"capacity":15,"electric_bike_surcharge_waiver":false,"eightd_has_key_dispenser":false,"rental_methods":["CREDITCARD","KEY"],"short_name":"B32012","lat":42.341814,"region_id":"10"},{"station_id":"6","station_type":"classic","name":"Cambridge St at Joy St","external_id":"f83466c6-0de8-11e7-991c-3863bb43a7d0","eightd_station_services":[],"lon":-71.06528744101524,"legacy_id":"6","has_kiosk":true,"capacity":15,"electric_bike_surcharge_waiver":false,"eightd_has_key_dispenser":false,"rental_methods":["CREDITCARD","KEY"],"short_name":"D32000","lat":42.36125721646537,"region_id":"10"},{"station_id":"7","station_type":"classic","name":"Fan Pier","external_id":"f8346768-0de8-11e7-991c-3863bb43a7d0","eightd_station_services":[],"lon":-71.04457139968872,"legacy_id":"7","has_kiosk":true,"capacity":15,"electric_bike_surcharge_waiver":false,"eightd_has_key_dispenser":false,"rental_methods":["CREDITCARD","KEY"],"short_name":"A32000","lat":42.3533905070523,"region_id":"10"},{"station_id":"8","station_type":"classic","name":"Union Square - Brighton Ave at Cambridge St","external_id":"f8346803-0de8-11e7-991c-3863bb43a7d0","eightd_station_services":[],"lon":-71.137313,"legacy_id":"8","has_kiosk":true,"capacity":19,"electric_bike_surcharge_waiver":false,"eightd_has_key_dispenser":false,"rental_methods":["CREDITCARD","KEY"],"short_name":"A32001","lat":42.353334,"region_id":"10"},{"station_id":"9","station_type":"classic","name":"Commonwealth Ave at Agganis Way","external_id":"f8346894-0de8-11e7-991c-3863bb43a7d0","eightd_station_services":[],"lon":-71.11903488636017,"legacy_id":"9","has_kiosk":true,"capacity":15,"electric_bike_surcharge_waiver":false,"eightd_has_key_dispenser":false,"rental_methods":["CREDITCARD","KEY"],"short_name":"A32002","lat":42.35169201885973,"region_id":"10"},{"station_id":"10","station_type":"classic","name":"B.U. Central - 725 Comm. Ave.","external_id":"f8346a3c-0de8-11e7-991c-3863bb43a7d0","eightd_station_services":[],"lon":-71.108279,"legacy_id":"10","has_kiosk":true,"capacity":11,"electric_bike_surcharge_waiver":false,"eightd_has_key_dispenser":false,"rental_methods":["CREDITCARD","KEY"],"short_name":"A32003","lat":42.350406,"region_id":"10"},{"station_id":"11","station_type":"classic","name":"Longwood Ave at Binney St","external_id":"f8346ad7-0de8-11e7-991c-3863bb43a7d0","eightd_station_services":[{"service_type":"ATTENDED_SERVICE","id":"f8346ad7-0de8-11e7-991c-3863bb43a7d0","description":"","name":"Valet Service","bikes_availability":"UNLIMITED","link_for_more_info":"","off_dock_bikes_count":68,"docks_availability":"NONE","off_dock_remaining_bike_capacity":-18,"schedule_description":""}],"lon":-71.1065,"legacy_id":"11","has_kiosk":true,"capacity":15,"electric_bike_surcharge_waiver":false,"eightd_has_key_dispenser":false,"rental_methods":["CREDITCARD","KEY"],"short_name":"A32004","lat":42.338629,"region_id":"10"},{"station_id":"12","station_type":"classic","name":"Ruggles T Stop - Columbus Ave at Melnea Cass Blvd","external_id":"f8346b6f-0de8-11e7-991c-3863bb43a7d0","eightd_station_services":[],"lon":-71.08798563480377,"legacy_id":"12","has_kiosk":true,"capacity":26,"electric_bike_surcharge_waiver":false,"eightd_has_key_dispenser":true,"rental_methods":["CREDITCARD","KEY"],"short_name":"B32002","lat":42.33624444796878,"region_id":"10"},{"station_id":"13","station_type":"classic","name":"Boston Medical Center - E Concord St at Harrison Ave","external_id":"f8346c01-0de8-11e7-991c-3863bb43a7d0","eightd_station_services":[],"lon":-71.07306711393903,"legacy_id":"13","has_kiosk":true,"capacity":19,"electric_bike_surcharge_waiver":false,"eightd_has_key_dispenser":false,"rental_methods":["CREDITCARD","KEY"],"short_name":"C32002","lat":42.33639915372498,"region_id":"10"},{"station_id":"14","station_type":"classic","name":"HMS/HSPH - Avenue Louis Pasteur at Longwood Ave","external_id":"f8346c96-0de8-11e7-991c-3863bb43a7d0","eightd_station_services":[],"lon":-71.10286116600037,"legacy_id":"14","has_kiosk":true,"capacity":25,"electric_bike_surcharge_waiver":false,"eightd_has_key_dispenser":false,"rental_methods":["CREDITCARD","KEY"],"short_name":"B32003","lat":42.3374174845973,"region_id":"10"},{"station_id":"15","station_type":"classic","name":"Brighton Mills - 370 Western Ave","external_id":"f8346d23-0de8-11e7-991c-3863bb43a7d0","eightd_station_services":[],"lon":-71.13776206970215,"legacy_id":"15","has_kiosk":true,"capacity":15,"electric_bike_surcharge_waiver":false,"eightd_has_key_dispenser":false,"rental_methods":["CREDITCARD","KEY"],"short_name":"A32005","lat":42.3615457081725,"region_id":"10"},{"station_id":"16","station_type":"classic","name":"Back Bay T Stop - Dartmouth St at Stuart St","external_id":"f8346dbd-0de8-11e7-991c-3863bb43a7d0","eightd_station_services":[],"lon":-71.07657015323639,"legacy_id":"16","has_kiosk":true,"capacity":19,"electric_bike_surcharge_waiver":false,"eightd_has_key_dispenser":true,"rental_methods":["CREDITCARD","KEY"],"short_name":"C32003","lat":42.34807412317439,"region_id":"10"},{"station_id":"17","station_type":"classic","name":"Soldiers Field Park - 111 Western Ave","external_id":"f8346e51-0de8-11e7-991c-3863bb43a7d0","eightd_station_services":[],"lon":-71.1182756971175,"legacy_id":"17","has_kiosk":true,"capacity":15,"electric_bike_surcharge_waiver":false,"eightd_has_key_dispenser":false,"rental_methods":["CREDITCARD","KEY"],"short_name":"A32006","lat":42.364263440638524,"region_id":"10"},{"station_id":"19","station_type":"classic","name":"Park Dr at Buswell St","external_id":"f8346f6f-0de8-11e7-991c-3863bb43a7d0","eightd_station_services":[],"lon":-71.105301,"legacy_id":"19","has_kiosk":true,"capacity":15,"electric_bike_surcharge_waiver":false,"eightd_has_key_dispenser":false,"rental_methods":["CREDITCARD","KEY"],"short_name":"A32008","lat":42.347241,"region_id":"10"},{"station_id":"20","station_type":"classic","name":"Aquarium T Stop - 200 Atlantic Ave","external_id":"f8347002-0de8-11e7-991c-3863bb43a7d0","eightd_station_services":[],"lon":-71.0514298081398,"legacy_id":"20","has_kiosk":true,"capacity":23,"electric_bike_surcharge_waiver":false,"eightd_has_key_dispenser":true,"rental_methods":["CREDITCARD","KEY"],"short_name":"B32004","lat":42.35991176110118,"region_id":"10"},{"station_id":"21","station_type":"classic","name":"Prudential Center - 101 Huntington Ave","external_id":"f834708e-0de8-11e7-991c-3863bb43a7d0","eightd_station_services":[],"lon":-71.08065776545118,"legacy_id":"21","has_kiosk":true,"capacity":18,"electric_bike_surcharge_waiver":false,"eightd_has_key_dispenser":true,"rental_methods":["CREDITCARD","KEY"],"short_name":"C32007","lat":42.34652003998412,"region_id":"10"},{"station_id":"22","station_type":"classic","name":"South Station - 700 Atlantic Ave","external_id":"f8347118-0de8-11e7-991c-3863bb43a7d0","eightd_station_services":[],"lon":-71.055547,"legacy_id":"22","has_kiosk":true,"capacity":47,"electric_bike_surcharge_waiver":false,"eightd_has_key_dispenser":true,"rental_methods":["CREDITCARD","KEY"],"short_name":"A32010","lat":42.352175,"region_id":"10"},{"station_id":"23","station_type":"classic","name":"Boston City Hall - 28 State St","external_id":"f83471a1-0de8-11e7-991c-3863bb43a7d0","eightd_station_services":[],"lon":-71.057629,"legacy_id":"23","has_kiosk":true,"capacity":25,"electric_bike_surcharge_waiver":false,"eightd_has_key_dispenser":true,"rental_methods":["CREDITCARD","KEY"],"short_name":"B32008","lat":42.35892,"region_id":"10"},{"station_id":"24","station_type":"classic","name":"Seaport Square - Seaport Blvd at Northern Ave","external_id":"f834723b-0de8-11e7-991c-3863bb43a7d0","eightd_station_services":[],"lon":-71.04436084628105,"legacy_id":"24","has_kiosk":true,"capacity":19,"electric_bike_surcharge_waiver":false,"eightd_has_key_dispenser":false,"rental_methods":["CREDITCARD","KEY"],"short_name":"B32007","lat":42.35148193460858,"region_id":"10"},{"station_id":"25","station_type":"classic","name":"South End Library - Tremont St at W Newton St","external_id":"f83472d3-0de8-11e7-991c-3863bb43a7d0","eightd_station_services":[],"lon":-71.076847,"legacy_id":"25","has_kiosk":true,"capacity":15,"electric_bike_surcharge_waiver":false,"eightd_has_key_dispenser":false,"rental_methods":["CREDITCARD","KEY"],"short_name":"A32009","lat":42.341332,"region_id":"10"},{"station_id":"26","station_type":"classic","name":"Washington St at Waltham St","external_id":"f8347361-0de8-11e7-991c-3863bb43a7d0","eightd_station_services":[],"lon":-71.06890439987183,"legacy_id":"26","has_kiosk":true,"capacity":15,"electric_bike_surcharge_waiver":false,"eightd_has_key_dispenser":false,"rental_methods":["CREDITCARD","KEY"],"short_name":"D32002","lat":42.341574718737476,"region_id":"10"},{"station_id":"27","station_type":"classic","name":"Roxbury Crossing T Stop - Columbus Ave at Tremont St","external_id":"f83473ea-0de8-11e7-991c-3863bb43a7d0","eightd_station_services":[],"lon":-71.095171,"legacy_id":"27","has_kiosk":true,"capacity":23,"electric_bike_surcharge_waiver":false,"eightd_has_key_dispenser":false,"rental_methods":["CREDITCARD","KEY"],"short_name":"C32001","lat":42.331184,"region_id":"10"},{"station_id":"29","station_type":"classic","name":"Innovation Lab - 125 Western Ave at Batten Way","external_id":"f8347a8b-0de8-11e7-991c-3863bb43a7d0","eightd_station_services":[],"lon":-71.12459778785706,"legacy_id":"29","has_kiosk":true,"capacity":19,"electric_bike_surcharge_waiver":false,"eightd_has_key_dispenser":false,"rental_methods":["CREDITCARD","KEY"],"short_name":"A32011","lat":42.36371276003581,"region_id":"10"},{"station_id":"30","station_type":"classic","name":"Brigham Circle - Francis St at Huntington Ave","external_id":"f8347b1e-0de8-11e7-991c-3863bb43a7d0","eightd_station_services":[],"lon":-71.10407917767589,"legacy_id":"30","has_kiosk":true,"capacity":15,"electric_bike_surcharge_waiver":false,"eightd_has_key_dispenser":false,"rental_methods":["CREDITCARD","KEY"],"short_name":"B32013","lat":42.33462893055976,"region_id":"10"},{"station_id":"31","station_type":"classic","name":"Seaport Hotel - Congress St at Seaport Ln","external_id":"f8347ba8-0de8-11e7-991c-3863bb43a7d0","eightd_station_services":[],"lon":-71.04167744055303,"legacy_id":"31","has_kiosk":true,"capacity":19,"electric_bike_surcharge_waiver":false,"eightd_has_key_dispenser":true,"rental_methods":["CREDITCARD","KEY"],"short_name":"B32014","lat":42.34881026188269,"region_id":"10"},{"station_id":"32","station_type":"classic","name":"Landmark Center - Brookline Ave at Park Dr","external_id":"f8347c41-0de8-11e7-991c-3863bb43a7d0","eightd_station_services":[],"lon":-71.10235286881107,"legacy_id":"32","has_kiosk":true,"capacity":15,"electric_bike_surcharge_waiver":false,"eightd_has_key_dispenser":false,"rental_methods":["CREDITCARD","KEY"],"short_name":"B32015","lat":42.343690557197476,"region_id":"10"},{"station_id":"33","station_type":"classic","name":"Kenmore Square","external_id":"f8347ccd-0de8-11e7-991c-3863bb43a7d0","eightd_station_services":[],"lon":-71.097009,"legacy_id":"33","has_kiosk":true,"capacity":27,"electric_bike_surcharge_waiver":false,"eightd_has_key_dispenser":true,"rental_methods":["CREDITCARD","KEY"],"short_name":"B32010","lat":42.348706,"region_id":"10"},{"station_id":"35","station_type":"classic","name":"Arch St at Franklin St","external_id":"f8347ded-0de8-11e7-991c-3863bb43a7d0","eightd_station_services":[],"lon":-71.0582291708306,"legacy_id":"35","has_kiosk":true,"capacity":31,"electric_bike_surcharge_waiver":false,"eightd_has_key_dispenser":false,"rental_methods":["CREDITCARD","KEY"],"short_name":"D32004","lat":42.355335019412564,"region_id":"10"},{"station_id":"36","station_type":"classic","name":"Copley Square - Dartmouth St at Boylston St","external_id":"f8347e78-0de8-11e7-991c-3863bb43a7d0","eightd_station_services":[],"lon":-71.07739206866427,"legacy_id":"36","has_kiosk":true,"capacity":32,"electric_bike_surcharge_waiver":false,"eightd_has_key_dispenser":true,"rental_methods":["CREDITCARD","KEY"],"short_name":"D32005","lat":42.34992828230057,"region_id":"10"},{"station_id":"37","station_type":"classic","name":"New Balance - 20 Guest St","external_id":"f8347f09-0de8-11e7-991c-3863bb43a7d0","eightd_station_services":[],"lon":-71.14673539996147,"legacy_id":"37","has_kiosk":true,"capacity":15,"electric_bike_surcharge_waiver":false,"eightd_has_key_dispenser":true,"rental_methods":["CREDITCARD","KEY"],"short_name":"D32001","lat":42.35732921867706,"region_id":"10"},{"station_id":"39","station_type":"classic","name":"Washington St at Rutland St","external_id":"f8348021-0de8-11e7-991c-3863bb43a7d0","eightd_station_services":[],"lon":-71.07404083013535,"legacy_id":"39","has_kiosk":true,"capacity":27,"electric_bike_surcharge_waiver":false,"eightd_has_key_dispenser":false,"rental_methods":["CREDITCARD","KEY"],"short_name":"C32006","lat":42.338514601785995,"region_id":"10"},{"station_id":"40","station_type":"classic","name":"Lewis Wharf at Atlantic Ave","external_id":"f83480a9-0de8-11e7-991c-3863bb43a7d0","eightd_station_services":[],"lon":-71.050877,"legacy_id":"40","has_kiosk":true,"capacity":19,"electric_bike_surcharge_waiver":false,"eightd_has_key_dispenser":false,"rental_methods":["CREDITCARD","KEY"],"short_name":"D32006","lat":42.363871,"region_id":"10"},{"station_id":"41","station_type":"classic","name":"Packard's Corner - Commonwealth Ave at Brighton Ave","external_id":"f8348136-0de8-11e7-991c-3863bb43a7d0","eightd_station_services":[],"lon":-71.123831,"legacy_id":"41","has_kiosk":true,"capacity":27,"electric_bike_surcharge_waiver":false,"eightd_has_key_dispenser":true,"rental_methods":["CREDITCARD","KEY"],"short_name":"A32012","lat":42.352261,"region_id":"10"},{"station_id":"42","station_type":"classic","name":"Boylston St at Arlington St","external_id":"f83481c5-0de8-11e7-991c-3863bb43a7d0","eightd_station_services":[],"lon":-71.07060294892108,"legacy_id":"42","has_kiosk":true,"capacity":31,"electric_bike_surcharge_waiver":false,"eightd_has_key_dispenser":false,"rental_methods":["CREDITCARD","KEY"],"short_name":"D32007","lat":42.35200960743121,"region_id":"10"},{"station_id":"43","station_type":"classic","name":"Rowes Wharf at Atlantic Ave","external_id":"f834824e-0de8-11e7-991c-3863bb43a7d0","eightd_station_services":[],"lon":-71.050699,"legacy_id":"43","has_kiosk":true,"capacity":14,"electric_bike_surcharge_waiver":false,"eightd_has_key_dispenser":true,"rental_methods":["CREDITCARD","KEY"],"short_name":"D32008","lat":42.357143,"region_id":"10"},{"station_id":"44","station_type":"classic","name":"Congress St at Boston City Hall","external_id":"f83482d2-0de8-11e7-991c-3863bb43a7d0","eightd_station_services":[],"lon":-71.05752243543975,"legacy_id":"44","has_kiosk":true,"capacity":23,"electric_bike_surcharge_waiver":false,"eightd_has_key_dispenser":false,"rental_methods":["CREDITCARD","KEY"],"short_name":"D32009","lat":42.36041774637169,"region_id":"10"},{"station_id":"46","station_type":"classic","name":"Christian Science Plaza - Massachusetts Ave at Westland Ave","external_id":"f83483f3-0de8-11e7-991c-3863bb43a7d0","eightd_station_services":[],"lon":-71.08582377433777,"legacy_id":"46","has_kiosk":true,"capacity":19,"electric_bike_surcharge_waiver":false,"eightd_has_key_dispenser":false,"rental_methods":["CREDITCARD","KEY"],"short_name":"B32005","lat":42.3436658245146,"region_id":"10"},{"station_id":"47","station_type":"classic","name":"Cross St at Hanover St","external_id":"f8348481-0de8-11e7-991c-3863bb43a7d0","eightd_station_services":[],"lon":-71.056067,"legacy_id":"47","has_kiosk":true,"capacity":19,"electric_bike_surcharge_waiver":false,"eightd_has_key_dispenser":false,"rental_methods":["CREDITCARD","KEY"],"short_name":"D32010","lat":42.362811,"region_id":"10"},{"station_id":"48","station_type":"classic","name":"Post Office Square","external_id":"f8348509-0de8-11e7-991c-3863bb43a7d0","eightd_station_services":[],"lon":-71.05459745998814,"legacy_id":"48","has_kiosk":true,"capacity":19,"electric_bike_surcharge_waiver":false,"eightd_has_key_dispenser":false,"rental_methods":["CREDITCARD","KEY"],"short_name":"D32012","lat":42.35585435522005,"region_id":"10"},{"station_id":"49","station_type":"classic","name":"Stuart St at Charles St","external_id":"f8348598-0de8-11e7-991c-3863bb43a7d0","eightd_station_services":[],"lon":-71.066289,"legacy_id":"49","has_kiosk":true,"capacity":17,"electric_bike_surcharge_waiver":false,"eightd_has_key_dispenser":true,"rental_methods":["CREDITCARD","KEY"],"short_name":"D32011","lat":42.351146,"region_id":"10"},{"station_id":"50","station_type":"classic","name":"Boylston St at Berkeley St","external_id":"f8348622-0de8-11e7-991c-3863bb43a7d0","eightd_station_services":[],"lon":-71.07329249382019,"legacy_id":"50","has_kiosk":true,"capacity":15,"electric_bike_surcharge_waiver":false,"eightd_has_key_dispenser":false,"rental_methods":["CREDITCARD","KEY"],"short_name":"D32013","lat":42.3511419825475,"region_id":"10"},{"station_id":"51","station_type":"classic","name":"Washington St at Lenox St","external_id":"f83486ab-0de8-11e7-991c-3863bb43a7d0","eightd_station_services":[],"lon":-71.07903778553009,"legacy_id":"51","has_kiosk":true,"capacity":15,"electric_bike_surcharge_waiver":false,"eightd_has_key_dispenser":false,"rental_methods":["CREDITCARD","KEY"],"short_name":"C32005","lat":42.3350989929096,"region_id":"10"},{"station_id":"52","station_type":"classic","name":"Newbury St at Hereford St","external_id":"f8348719-0de8-11e7-991c-3863bb43a7d0","eightd_station_services":[],"lon":-71.085954,"legacy_id":"52","has_kiosk":true,"capacity":23,"electric_bike_surcharge_waiver":false,"eightd_has_key_dispenser":false,"rental_methods":["CREDITCARD","KEY"],"short_name":"B32000","lat":42.348717,"region_id":"10"},{"station_id":"53","station_type":"classic","name":"Beacon St at Massachusetts Ave","external_id":"f8348781-0de8-11e7-991c-3863bb43a7d0","eightd_station_services":[],"lon":-71.0898108780384,"legacy_id":"53","has_kiosk":true,"capacity":19,"electric_bike_surcharge_waiver":false,"eightd_has_key_dispenser":false,"rental_methods":["CREDITCARD","KEY"],"short_name":"B32016","lat":42.35082680669095,"region_id":"10"},{"station_id":"54","station_type":"classic","name":"Tremont St at West St","external_id":"f83487f0-0de8-11e7-991c-3863bb43a7d0","eightd_station_services":[],"lon":-71.063348,"legacy_id":"54","has_kiosk":true,"capacity":15,"electric_bike_surcharge_waiver":false,"eightd_has_key_dispenser":false,"rental_methods":["CREDITCARD","KEY"],"short_name":"D32014","lat":42.354979,"region_id":"10"},{"station_id":"55","station_type":"classic","name":"Boylston St at Massachusetts Ave","external_id":"f8348857-0de8-11e7-991c-3863bb43a7d0","eightd_station_services":[],"lon":-71.08678414955648,"legacy_id":"55","has_kiosk":true,"capacity":15,"electric_bike_surcharge_waiver":false,"eightd_has_key_dispenser":false,"rental_methods":["CREDITCARD","KEY"],"short_name":"B32018","lat":42.34740620525209,"region_id":"10"},{"station_id":"56","station_type":"classic","name":"Dudley Square - Bolling Building","external_id":"f83488be-0de8-11e7-991c-3863bb43a7d0","eightd_station_services":[],"lon":-71.08386572459494,"legacy_id":"56","has_kiosk":true,"capacity":18,"electric_bike_surcharge_waiver":false,"eightd_has_key_dispenser":true,"rental_methods":["CREDITCARD","KEY"],"short_name":"B32017","lat":42.329842993518085,"region_id":"10"},{"station_id":"57","station_type":"classic","name":"Massachusetts Ave at Columbus Ave","external_id":"f8348924-0de8-11e7-991c-3863bb43a7d0","eightd_station_services":[],"lon":-71.0816197,"legacy_id":"57","has_kiosk":true,"capacity":14,"electric_bike_surcharge_waiver":false,"eightd_has_key_dispenser":true,"rental_methods":["CREDITCARD","KEY"],"short_name":"C32004","lat":42.340814,"region_id":"10"},{"station_id":"58","station_type":"classic","name":"Mugar Way at Beacon St","external_id":"f8348995-0de8-11e7-991c-3863bb43a7d0","eightd_station_services":[],"lon":-71.07286870479584,"legacy_id":"58","has_kiosk":true,"capacity":19,"electric_bike_surcharge_waiver":false,"eightd_has_key_dispenser":true,"rental_methods":["CREDITCARD","KEY"],"short_name":"D32017","lat":42.355536284897084,"region_id":"10"},{"station_id":"59","station_type":"classic","name":"Chinatown Gate Plaza","external_id":"f83489ff-0de8-11e7-991c-3863bb43a7d0","eightd_station_services":[],"lon":-71.059367,"legacy_id":"59","has_kiosk":true,"capacity":19,"electric_bike_surcharge_waiver":false,"eightd_has_key_dispenser":true,"rental_methods":["CREDITCARD","KEY"],"short_name":"D32015","lat":42.351356,"region_id":"10"},{"station_id":"60","station_type":"classic","name":"Charles Circle - Charles St at Cambridge St","external_id":"f8348a68-0de8-11e7-991c-3863bb43a7d0","eightd_station_services":[],"lon":-71.07118962337152,"legacy_id":"60","has_kiosk":true,"capacity":19,"electric_bike_surcharge_waiver":false,"eightd_has_key_dispenser":false,"rental_methods":["CREDITCARD","KEY"],"short_name":"D32016","lat":42.36079296858265,"region_id":"10"},{"station_id":"61","station_type":"classic","name":"Boylston St at Fairfield St","external_id":"f8349070-0de8-11e7-991c-3863bb43a7d0","eightd_station_services":[],"lon":-71.08192384243011,"legacy_id":"61","has_kiosk":true,"capacity":3,"electric_bike_surcharge_waiver":false,"eightd_has_key_dispenser":false,"rental_methods":["CREDITCARD","KEY"],"short_name":"C32008","lat":42.34908155168097,"region_id":"10"},{"station_id":"63","station_type":"classic","name":"Dorchester Ave at Gillette Park","external_id":"f834916a-0de8-11e7-991c-3863bb43a7d0","eightd_station_services":[],"lon":-71.05737626552582,"legacy_id":"63","has_kiosk":true,"capacity":15,"electric_bike_surcharge_waiver":false,"eightd_has_key_dispenser":false,"rental_methods":["CREDITCARD","KEY"],"short_name":"C32009","lat":42.344040510016356,"region_id":"10"},{"station_id":"64","station_type":"classic","name":"Congress St at Sleeper St","external_id":"f83491d4-0de8-11e7-991c-3863bb43a7d0","eightd_station_services":[],"lon":-71.04930013418198,"legacy_id":"64","has_kiosk":true,"capacity":19,"electric_bike_surcharge_waiver":false,"eightd_has_key_dispenser":false,"rental_methods":["CREDITCARD","KEY"],"short_name":"C32010","lat":42.351004495946704,"region_id":"10"},{"station_id":"65","station_type":"classic","name":"Boston Convention and Exhibition Center - Summer St at West Side Dr","external_id":"f834923d-0de8-11e7-991c-3863bb43a7d0","eightd_station_services":[],"lon":-71.0453599691391,"legacy_id":"65","has_kiosk":true,"capacity":23,"electric_bike_surcharge_waiver":false,"eightd_has_key_dispenser":false,"rental_methods":["CREDITCARD","KEY"],"short_name":"D32018","lat":42.347763454147454,"region_id":"10"},{"station_id":"66","station_type":"classic","name":"Commonwealth Ave at Griggs St","external_id":"f83492b4-0de8-11e7-991c-3863bb43a7d0","eightd_station_services":[],"lon":-71.13275302578586,"legacy_id":"66","has_kiosk":true,"capacity":15,"electric_bike_surcharge_waiver":false,"eightd_has_key_dispenser":false,"rental_methods":["CREDITCARD","KEY"],"short_name":"A32017","lat":42.34922469338298,"region_id":"10"},{"station_id":"67","station_type":"classic","name":"MIT at Mass Ave / Amherst St","external_id":"f83493c0-0de8-11e7-991c-3863bb43a7d0","eightd_station_services":[],"lon":-71.093198,"legacy_id":"67","has_kiosk":true,"capacity":27,"electric_bike_surcharge_waiver":false,"eightd_has_key_dispenser":true,"rental_methods":["CREDITCARD","KEY"],"short_name":"M32006","lat":42.3581,"region_id":"8"},{"station_id":"68","station_type":"classic","name":"Central Square at Mass Ave / Essex St","external_id":"f8349440-0de8-11e7-991c-3863bb43a7d0","eightd_station_services":[],"lon":-71.1031,"legacy_id":"68","has_kiosk":true,"capacity":19,"electric_bike_surcharge_waiver":false,"eightd_has_key_dispenser":true,"rental_methods":["CREDITCARD","KEY"],"short_name":"M32011","lat":42.36507,"region_id":"8"},{"station_id":"69","station_type":"classic","name":"Coolidge Corner - Beacon St at Centre St","external_id":"f83494b4-0de8-11e7-991c-3863bb43a7d0","eightd_station_services":[],"lon":-71.123338,"legacy_id":"69","has_kiosk":true,"capacity":19,"electric_bike_surcharge_waiver":false,"eightd_has_key_dispenser":true,"rental_methods":["CREDITCARD","KEY"],"short_name":"K32001","lat":42.341598,"region_id":"4"},{"station_id":"70","station_type":"classic","name":"Harvard Kennedy School at Bennett St / Eliot St","external_id":"f834952a-0de8-11e7-991c-3863bb43a7d0","eightd_station_services":[],"lon":-71.12188071012497,"legacy_id":"70","has_kiosk":true,"capacity":23,"electric_bike_surcharge_waiver":false,"eightd_has_key_dispenser":false,"rental_methods":["CREDITCARD","KEY"],"short_name":"M32016","lat":42.3722168027866,"region_id":"8"},{"station_id":"71","station_type":"classic","name":"Conway Park - Somerville Avenue","external_id":"f8349599-0de8-11e7-991c-3863bb43a7d0","eightd_station_services":[],"lon":-71.10853672027588,"legacy_id":"71","has_kiosk":true,"capacity":23,"electric_bike_surcharge_waiver":false,"eightd_has_key_dispenser":false,"rental_methods":["CREDITCARD","KEY"],"short_name":"S32004","lat":42.383638948222654,"region_id":"9"},{"station_id":"72","station_type":"classic","name":"One Broadway / Kendall Sq at Main St / 3rd St","external_id":"f8349672-0de8-11e7-991c-3863bb43a7d0","eightd_station_services":[],"lon":-71.0831107199192,"legacy_id":"72","has_kiosk":true,"capacity":23,"electric_bike_surcharge_waiver":false,"eightd_has_key_dispenser":false,"rental_methods":["CREDITCARD","KEY"],"short_name":"M32003","lat":42.36224178650923,"region_id":"8"},{"station_id":"73","station_type":"classic","name":"Harvard Square at Brattle St / Eliot St","external_id":"f8349745-0de8-11e7-991c-3863bb43a7d0","eightd_station_services":[],"lon":-71.12098601080106,"legacy_id":"73","has_kiosk":true,"capacity":15,"electric_bike_surcharge_waiver":false,"eightd_has_key_dispenser":false,"rental_methods":["CREDITCARD","KEY"],"short_name":"M32017","lat":42.373328798874056,"region_id":"8"},{"station_id":"74","station_type":"classic","name":"Harvard Square at Mass Ave/ Dunster","external_id":"f83497b9-0de8-11e7-991c-3863bb43a7d0","eightd_station_services":[],"lon":-71.118579,"legacy_id":"74","has_kiosk":true,"capacity":19,"electric_bike_surcharge_waiver":false,"eightd_has_key_dispenser":true,"rental_methods":["CREDITCARD","KEY"],"short_name":"M32018","lat":42.373268,"region_id":"8"},{"station_id":"75","station_type":"classic","name":"Lafayette Square at Mass Ave / Main St / Columbia St","external_id":"f8349824-0de8-11e7-991c-3863bb43a7d0","eightd_station_services":[],"lon":-71.10057324171066,"legacy_id":"75","has_kiosk":true,"capacity":15,"electric_bike_surcharge_waiver":false,"eightd_has_key_dispenser":false,"rental_methods":["CREDITCARD","KEY"],"short_name":"M32009","lat":42.36346469304347,"region_id":"8"},{"station_id":"76","station_type":"classic","name":"Central Sq Post Office / Cambridge City Hall at Mass Ave / Pleasant St","external_id":"f8349b20-0de8-11e7-991c-3863bb43a7d0","eightd_station_services":[],"lon":-71.105495,"legacy_id":"76","has_kiosk":true,"capacity":17,"electric_bike_surcharge_waiver":false,"eightd_has_key_dispenser":false,"rental_methods":["CREDITCARD","KEY"],"short_name":"M32012","lat":42.366426,"region_id":"8"},{"station_id":"77","station_type":"classic","name":"Somerville City Hall","external_id":"f8349ba9-0de8-11e7-991c-3863bb43a7d0","eightd_station_services":[],"lon":-71.09812,"legacy_id":"77","has_kiosk":true,"capacity":19,"electric_bike_surcharge_waiver":false,"eightd_has_key_dispenser":false,"rental_methods":["CREDITCARD","KEY"],"short_name":"S32001","lat":42.386844,"region_id":"9"},{"station_id":"78","station_type":"classic","name":"Union Square - Somerville","external_id":"f8349c69-0de8-11e7-991c-3863bb43a7d0","eightd_station_services":[],"lon":-71.09540475672475,"legacy_id":"78","has_kiosk":true,"capacity":19,"electric_bike_surcharge_waiver":false,"eightd_has_key_dispenser":false,"rental_methods":["CREDITCARD","KEY"],"short_name":"S32002","lat":42.37964789967527,"region_id":"9"},{"station_id":"79","station_type":"classic","name":"Beacon St at Washington / Kirkland","external_id":"f8349d6e-0de8-11e7-991c-3863bb43a7d0","eightd_station_services":[],"lon":-71.10707223415375,"legacy_id":"79","has_kiosk":true,"capacity":19,"electric_bike_surcharge_waiver":false,"eightd_has_key_dispenser":false,"rental_methods":["CREDITCARD","KEY"],"short_name":"S32003","lat":42.37875351212593,"region_id":"9"},{"station_id":"80","station_type":"classic","name":"MIT Stata Center at Vassar St / Main St","external_id":"f8349de4-0de8-11e7-991c-3863bb43a7d0","eightd_station_services":[],"lon":-71.09115600585936,"legacy_id":"80","has_kiosk":true,"capacity":35,"electric_bike_surcharge_waiver":false,"eightd_has_key_dispenser":false,"rental_methods":["CREDITCARD","KEY"],"short_name":"M32005","lat":42.3621312344991,"region_id":"8"},{"station_id":"81","station_type":"classic","name":"Chinatown T Stop","external_id":"f8349e56-0de8-11e7-991c-3863bb43a7d0","eightd_station_services":[],"lon":-71.062679,"legacy_id":"81","has_kiosk":true,"capacity":19,"electric_bike_surcharge_waiver":false,"eightd_has_key_dispenser":false,"rental_methods":["CREDITCARD","KEY"],"short_name":"D32019","lat":42.352409,"region_id":"10"},{"station_id":"82","station_type":"classic","name":"Beacon St at Tappan St","external_id":"f8349ed6-0de8-11e7-991c-3863bb43a7d0","eightd_station_services":[],"lon":-71.13894682028331,"legacy_id":"82","has_kiosk":true,"capacity":15,"electric_bike_surcharge_waiver":false,"eightd_has_key_dispenser":false,"rental_methods":["CREDITCARD","KEY"],"short_name":"K32002","lat":42.33826680058037,"region_id":"4"},{"station_id":"84","station_type":"classic","name":"CambridgeSide Galleria - CambridgeSide PL at Land Blvd","external_id":"f834a1de-0de8-11e7-991c-3863bb43a7d0","eightd_station_services":[],"lon":-71.07679277658461,"legacy_id":"84","has_kiosk":true,"capacity":15,"electric_bike_surcharge_waiver":false,"eightd_has_key_dispenser":false,"rental_methods":["CREDITCARD","KEY"],"short_name":"M32019","lat":42.367074071490926,"region_id":"8"},{"station_id":"85","station_type":"classic","name":"Spaulding Rehabilitation Hospital - Charlestown Navy Yard","external_id":"f834a2a8-0de8-11e7-991c-3863bb43a7d0","eightd_station_services":[],"lon":-71.048927,"legacy_id":"85","has_kiosk":true,"capacity":19,"electric_bike_surcharge_waiver":false,"eightd_has_key_dispenser":false,"rental_methods":["CREDITCARD","KEY"],"short_name":"D32023","lat":42.378338,"region_id":"10"},{"station_id":"86","station_type":"classic","name":"Brookline Village - Station Street at MBTA","external_id":"f834a32d-0de8-11e7-991c-3863bb43a7d0","eightd_station_services":[],"lon":-71.11626680949485,"legacy_id":"86","has_kiosk":true,"capacity":19,"electric_bike_surcharge_waiver":false,"eightd_has_key_dispenser":false,"rental_methods":["CREDITCARD","KEY"],"short_name":"K32003","lat":42.33274392304887,"region_id":"4"},{"station_id":"87","station_type":"classic","name":"Harvard University Housing - 115 Putnam Ave at Peabody Terrace","external_id":"f834a3a0-0de8-11e7-991c-3863bb43a7d0","eightd_station_services":[],"lon":-71.114214,"legacy_id":"87","has_kiosk":true,"capacity":15,"electric_bike_surcharge_waiver":false,"eightd_has_key_dispenser":false,"rental_methods":["CREDITCARD","KEY"],"short_name":"M32014","lat":42.366621,"region_id":"8"},{"station_id":"89","station_type":"classic","name":"Harvard Law School at Mass Ave / Jarvis St","external_id":"f834a67b-0de8-11e7-991c-3863bb43a7d0","eightd_station_services":[],"lon":-71.119945,"legacy_id":"89","has_kiosk":true,"capacity":19,"electric_bike_surcharge_waiver":false,"eightd_has_key_dispenser":false,"rental_methods":["CREDITCARD","KEY"],"short_name":"M32020","lat":42.379011,"region_id":"8"},{"station_id":"90","station_type":"classic","name":"Lechmere Station at Cambridge St / First St","external_id":"f834a6f9-0de8-11e7-991c-3863bb43a7d0","eightd_station_services":[],"lon":-71.076529,"legacy_id":"90","has_kiosk":true,"capacity":19,"electric_bike_surcharge_waiver":false,"eightd_has_key_dispenser":false,"rental_methods":["CREDITCARD","KEY"],"short_name":"M32001","lat":42.370677,"region_id":"8"},{"station_id":"91","station_type":"classic","name":"One Kendall Square at Hampshire St / Portland St","external_id":"f834a7d1-0de8-11e7-991c-3863bb43a7d0","eightd_station_services":[],"lon":-71.09169,"legacy_id":"91","has_kiosk":true,"capacity":19,"electric_bike_surcharge_waiver":false,"eightd_has_key_dispenser":false,"rental_methods":["CREDITCARD","KEY"],"short_name":"M32002","lat":42.366277,"region_id":"8"},{"station_id":"92","station_type":"classic","name":"University of Massachusetts Boston - Campus Center","external_id":"f834a838-0de8-11e7-991c-3863bb43a7d0","eightd_station_services":[],"lon":-71.03648586203235,"legacy_id":"92","has_kiosk":true,"capacity":19,"electric_bike_surcharge_waiver":false,"eightd_has_key_dispenser":false,"rental_methods":["CREDITCARD","KEY"],"short_name":"C32014","lat":42.31218918475612,"region_id":"10"},{"station_id":"93","station_type":"classic","name":"JFK/UMass T Stop","external_id":"f834a8a0-0de8-11e7-991c-3863bb43a7d0","eightd_station_services":[],"lon":-71.05118036270142,"legacy_id":"93","has_kiosk":true,"capacity":15,"electric_bike_surcharge_waiver":false,"eightd_has_key_dispenser":false,"rental_methods":["CREDITCARD","KEY"],"short_name":"C32013","lat":42.32033973515723,"region_id":"10"},{"station_id":"94","station_type":"classic","name":"Main St at Austin St","external_id":"f834a959-0de8-11e7-991c-3863bb43a7d0","eightd_station_services":[],"lon":-71.064608,"legacy_id":"94","has_kiosk":true,"capacity":11,"electric_bike_surcharge_waiver":false,"eightd_has_key_dispenser":false,"rental_methods":["CREDITCARD","KEY"],"short_name":"D32020","lat":42.375603,"region_id":"10"},{"station_id":"95","station_type":"classic","name":"Cambridge St - at Columbia St / Webster Ave","external_id":"f834ab92-0de8-11e7-991c-3863bb43a7d0","eightd_station_services":[],"lon":-71.094445,"legacy_id":"95","has_kiosk":true,"capacity":15,"electric_bike_surcharge_waiver":false,"eightd_has_key_dispenser":false,"rental_methods":["CREDITCARD","KEY"],"short_name":"M32007","lat":42.372969,"region_id":"8"},{"station_id":"96","station_type":"classic","name":"Cambridge Main Library at Broadway / Trowbridge St","external_id":"f834abfd-0de8-11e7-991c-3863bb43a7d0","eightd_station_services":[],"lon":-71.111075,"legacy_id":"96","has_kiosk":true,"capacity":19,"electric_bike_surcharge_waiver":false,"eightd_has_key_dispenser":false,"rental_methods":["CREDITCARD","KEY"],"short_name":"M32013","lat":42.373379,"region_id":"8"},{"station_id":"97","station_type":"classic","name":"Harvard University River Houses at DeWolfe St / Cowperthwaite St","external_id":"f834b101-0de8-11e7-991c-3863bb43a7d0","eightd_station_services":[],"lon":-71.11687034368515,"legacy_id":"97","has_kiosk":true,"capacity":19,"electric_bike_surcharge_waiver":false,"eightd_has_key_dispenser":false,"rental_methods":["CREDITCARD","KEY"],"short_name":"M32038","lat":42.369239074859216,"region_id":"8"},{"station_id":"98","station_type":"classic","name":"Warren St at Chelsea St","external_id":"f834b183-0de8-11e7-991c-3863bb43a7d0","eightd_station_services":[],"lon":-71.060292,"legacy_id":"98","has_kiosk":true,"capacity":23,"electric_bike_surcharge_waiver":false,"eightd_has_key_dispenser":true,"rental_methods":["CREDITCARD","KEY"],"short_name":"D32021","lat":42.371848,"region_id":"10"},{"station_id":"99","station_type":"classic","name":"Wilson Square","external_id":"f834b1ed-0de8-11e7-991c-3863bb43a7d0","eightd_station_services":[],"lon":-71.11412136298895,"legacy_id":"99","has_kiosk":true,"capacity":15,"electric_bike_surcharge_waiver":false,"eightd_has_key_dispenser":false,"rental_methods":["CREDITCARD","KEY"],"short_name":"S32005","lat":42.38567578752914,"region_id":"9"},{"station_id":"100","station_type":"classic","name":"Davis Square","external_id":"f834b42d-0de8-11e7-991c-3863bb43a7d0","eightd_station_services":[],"lon":-71.123024,"legacy_id":"100","has_kiosk":true,"capacity":25,"electric_bike_surcharge_waiver":false,"eightd_has_key_dispenser":true,"rental_methods":["CREDITCARD","KEY"],"short_name":"S32006","lat":42.396969,"region_id":"9"},{"station_id":"101","station_type":"classic","name":"Ball Sq","external_id":"f834b49d-0de8-11e7-991c-3863bb43a7d0","eightd_station_services":[],"lon":-71.11102235516228,"legacy_id":"101","has_kiosk":true,"capacity":19,"electric_bike_surcharge_waiver":false,"eightd_has_key_dispenser":false,"rental_methods":["CREDITCARD","KEY"],"short_name":"S32007","lat":42.39920335720869,"region_id":"9"},{"station_id":"102","station_type":"classic","name":"Powder House Circle - Nathan Tufts Park","external_id":"f834b50a-0de8-11e7-991c-3863bb43a7d0","eightd_station_services":[],"lon":-71.116772,"legacy_id":"102","has_kiosk":true,"capacity":15,"electric_bike_surcharge_waiver":false,"eightd_has_key_dispenser":false,"rental_methods":["CREDITCARD","KEY"],"short_name":"S32008","lat":42.400877,"region_id":"9"},{"station_id":"103","station_type":"classic","name":"JFK Crossing at Harvard St. / Thorndike St.","external_id":"f834b5d9-0de8-11e7-991c-3863bb43a7d0","eightd_station_services":[],"lon":-71.1283321143128,"legacy_id":"103","has_kiosk":true,"capacity":15,"electric_bike_surcharge_waiver":false,"eightd_has_key_dispenser":false,"rental_methods":["CREDITCARD","KEY"],"short_name":"K32004","lat":42.346551241753566,"region_id":"4"},{"station_id":"104","station_type":"classic","name":"Harvard University Radcliffe Quadrangle at Shepard St / Garden St","external_id":"f834b652-0de8-11e7-991c-3863bb43a7d0","eightd_station_services":[],"lon":-71.125107,"legacy_id":"104","has_kiosk":true,"capacity":19,"electric_bike_surcharge_waiver":false,"eightd_has_key_dispenser":false,"rental_methods":["CREDITCARD","KEY"],"short_name":"M32024","lat":42.380287,"region_id":"8"},{"station_id":"105","station_type":"classic","name":"Lower Cambridgeport at Magazine St / Riverside Rd","external_id":"f834b8b3-0de8-11e7-991c-3863bb43a7d0","eightd_station_services":[],"lon":-71.1138716340065,"legacy_id":"105","has_kiosk":true,"capacity":19,"electric_bike_surcharge_waiver":false,"eightd_has_key_dispenser":false,"rental_methods":["CREDITCARD","KEY"],"short_name":"M32022","lat":42.357218503176526,"region_id":"8"},{"station_id":"106","station_type":"classic","name":"Dudley Town Common - Mt Pleasant Ave at Blue Hill Ave","external_id":"f834b928-0de8-11e7-991c-3863bb43a7d0","eightd_station_services":[],"lon":-71.075354,"legacy_id":"106","has_kiosk":true,"capacity":15,"electric_bike_surcharge_waiver":false,"eightd_has_key_dispenser":false,"rental_methods":["CREDITCARD","KEY"],"short_name":"C32015","lat":42.325333,"region_id":"10"},{"station_id":"107","station_type":"classic","name":"Ames St at Main St","external_id":"f834b99d-0de8-11e7-991c-3863bb43a7d0","eightd_station_services":[{"service_type":"ATTENDED_SERVICE","id":"f834b99d-0de8-11e7-991c-3863bb43a7d0","description":"","name":"Valet Service","bikes_availability":"UNLIMITED","link_for_more_info":"","off_dock_bikes_count":88,"docks_availability":"NONE","off_dock_remaining_bike_capacity":-38,"schedule_description":""}],"lon":-71.08822,"legacy_id":"107","has_kiosk":true,"capacity":19,"electric_bike_surcharge_waiver":false,"eightd_has_key_dispenser":false,"rental_methods":["CREDITCARD","KEY"],"short_name":"M32037","lat":42.3625,"region_id":"8"},{"station_id":"108","station_type":"classic","name":"Harvard University / SEAS Cruft-Pierce Halls at 29 Oxford St","external_id":"f834ba08-0de8-11e7-991c-3863bb43a7d0","eightd_station_services":[],"lon":-71.116865,"legacy_id":"108","has_kiosk":true,"capacity":17,"electric_bike_surcharge_waiver":false,"eightd_has_key_dispenser":false,"rental_methods":["CREDITCARD","KEY"],"short_name":"M32023","lat":42.377945,"region_id":"8"},{"station_id":"109","station_type":"classic","name":"West End Park","external_id":"f834bbdd-0de8-11e7-991c-3863bb43a7d0","eightd_station_services":[],"lon":-71.06446668505669,"legacy_id":"109","has_kiosk":true,"capacity":35,"electric_bike_surcharge_waiver":false,"eightd_has_key_dispenser":false,"rental_methods":["CREDITCARD","KEY"],"short_name":"D32022","lat":42.36590788445084,"region_id":"10"},{"station_id":"110","station_type":"classic","name":"Harvard University Gund Hall at Quincy St / Kirkland St","external_id":"f834c5c9-0de8-11e7-991c-3863bb43a7d0","eightd_station_services":[],"lon":-71.114025,"legacy_id":"110","has_kiosk":true,"capacity":15,"electric_bike_surcharge_waiver":false,"eightd_has_key_dispenser":false,"rental_methods":["CREDITCARD","KEY"],"short_name":"M32021","lat":42.376369,"region_id":"8"},{"station_id":"111","station_type":"classic","name":"Packard Ave at Powderhouse Blvd","external_id":"f834c6f5-0de8-11e7-991c-3863bb43a7d0","eightd_station_services":[],"lon":-71.123413,"legacy_id":"111","has_kiosk":true,"capacity":15,"electric_bike_surcharge_waiver":false,"eightd_has_key_dispenser":false,"rental_methods":["CREDITCARD","KEY"],"short_name":"S32009","lat":42.40449,"region_id":"9"},{"station_id":"112","station_type":"classic","name":"Clarendon Hill at Broadway","external_id":"f834c7a9-0de8-11e7-991c-3863bb43a7d0","eightd_station_services":[],"lon":-71.132446,"legacy_id":"112","has_kiosk":true,"capacity":15,"electric_bike_surcharge_waiver":false,"eightd_has_key_dispenser":false,"rental_methods":["CREDITCARD","KEY"],"short_name":"S32010","lat":42.406302,"region_id":"9"},{"station_id":"113","station_type":"classic","name":"Andrew T Stop - Dorchester Ave at Dexter St","external_id":"f834ca55-0de8-11e7-991c-3863bb43a7d0","eightd_station_services":[],"lon":-71.05699850837482,"legacy_id":"113","has_kiosk":true,"capacity":15,"electric_bike_surcharge_waiver":false,"eightd_has_key_dispenser":false,"rental_methods":["CREDITCARD","KEY"],"short_name":"C32012","lat":42.33073332585453,"region_id":"10"},{"station_id":"114","station_type":"classic","name":"Teele Square","external_id":"f834caf2-0de8-11e7-991c-3863bb43a7d0","eightd_station_services":[],"lon":-71.12671129423688,"legacy_id":"114","has_kiosk":true,"capacity":15,"electric_bike_surcharge_waiver":false,"eightd_has_key_dispenser":false,"rental_methods":["CREDITCARD","KEY"],"short_name":"S32011","lat":42.40231703379005,"region_id":"9"},{"station_id":"115","station_type":"classic","name":"Porter Square Station","external_id":"f834cb89-0de8-11e7-991c-3863bb43a7d0","eightd_station_services":[],"lon":-71.119084,"legacy_id":"115","has_kiosk":true,"capacity":19,"electric_bike_surcharge_waiver":false,"eightd_has_key_dispenser":false,"rental_methods":["CREDITCARD","KEY"],"short_name":"M32029","lat":42.387995,"region_id":"8"},{"station_id":"116","station_type":"classic","name":"359 Broadway - Broadway at Fayette Street","external_id":"f834cf45-0de8-11e7-991c-3863bb43a7d0","eightd_station_services":[],"lon":-71.104412,"legacy_id":"116","has_kiosk":true,"capacity":23,"electric_bike_surcharge_waiver":false,"eightd_has_key_dispenser":false,"rental_methods":["CREDITCARD","KEY"],"short_name":"M32026","lat":42.370803,"region_id":"8"},{"station_id":"117","station_type":"classic","name":"Binney St / Sixth St","external_id":"f834cfd8-0de8-11e7-991c-3863bb43a7d0","eightd_station_services":[],"lon":-71.08633603909765,"legacy_id":"117","has_kiosk":true,"capacity":19,"electric_bike_surcharge_waiver":false,"eightd_has_key_dispenser":false,"rental_methods":["CREDITCARD","KEY"],"short_name":"M32027","lat":42.36608797388682,"region_id":"8"},{"station_id":"118","station_type":"classic","name":"Linear Park - Mass. Ave. at Cameron Ave. ","external_id":"f834d064-0de8-11e7-991c-3863bb43a7d0","eightd_station_services":[],"lon":-71.130516,"legacy_id":"118","has_kiosk":true,"capacity":19,"electric_bike_surcharge_waiver":false,"eightd_has_key_dispenser":false,"rental_methods":["CREDITCARD","KEY"],"short_name":"M32025","lat":42.397828,"region_id":"8"},{"station_id":"119","station_type":"classic","name":"South Boston Library - 646 E Broadway","external_id":"f834d260-0de8-11e7-991c-3863bb43a7d0","eightd_station_services":[],"lon":-71.03877,"legacy_id":"119","has_kiosk":true,"capacity":15,"electric_bike_surcharge_waiver":false,"eightd_has_key_dispenser":false,"rental_methods":["CREDITCARD","KEY"],"short_name":"C32017","lat":42.335741,"region_id":"10"},{"station_id":"120","station_type":"classic","name":"Beacon St at Charles St","external_id":"f834d34b-0de8-11e7-991c-3863bb43a7d0","eightd_station_services":[],"lon":-71.069849,"legacy_id":"120","has_kiosk":true,"capacity":19,"electric_bike_surcharge_waiver":false,"eightd_has_key_dispenser":false,"rental_methods":["CREDITCARD","KEY"],"short_name":"D32024","lat":42.356052,"region_id":"10"},{"station_id":"121","station_type":"classic","name":"W Broadway at Dorchester St","external_id":"f834db9b-0de8-11e7-991c-3863bb43a7d0","eightd_station_services":[],"lon":-71.04622899561036,"legacy_id":"121","has_kiosk":true,"capacity":17,"electric_bike_surcharge_waiver":false,"eightd_has_key_dispenser":false,"rental_methods":["CREDITCARD","KEY"],"short_name":"C32016","lat":42.335958979433094,"region_id":"10"},{"station_id":"122","station_type":"classic","name":"Burlington Ave at Brookline Ave","external_id":"f834dc46-0de8-11e7-991c-3863bb43a7d0","eightd_station_services":[],"lon":-71.100694,"legacy_id":"122","has_kiosk":true,"capacity":15,"electric_bike_surcharge_waiver":false,"eightd_has_key_dispenser":false,"rental_methods":["CREDITCARD","KEY"],"short_name":"B32020","lat":42.345733,"region_id":"10"},{"station_id":"124","station_type":"classic","name":"Curtis Hall - South St at Centre St","external_id":"f834dedf-0de8-11e7-991c-3863bb43a7d0","eightd_station_services":[],"lon":-71.11543,"legacy_id":"124","has_kiosk":true,"capacity":15,"electric_bike_surcharge_waiver":false,"eightd_has_key_dispenser":false,"rental_methods":["CREDITCARD","KEY"],"short_name":"E32001","lat":42.309054,"region_id":"10"},{"station_id":"125","station_type":"classic","name":"Hyde Square - Barbara St at Centre St","external_id":"f834e1b2-0de8-11e7-991c-3863bb43a7d0","eightd_station_services":[],"lon":-71.10984160567114,"legacy_id":"125","has_kiosk":true,"capacity":15,"electric_bike_surcharge_waiver":false,"eightd_has_key_dispenser":false,"rental_methods":["CREDITCARD","KEY"],"short_name":"E32003","lat":42.32176525723952,"region_id":"10"},{"station_id":"126","station_type":"classic","name":"Egleston Square - Atherton St at Washington St","external_id":"f834e244-0de8-11e7-991c-3863bb43a7d0","eightd_station_services":[],"lon":-71.098634,"legacy_id":"126","has_kiosk":true,"capacity":15,"electric_bike_surcharge_waiver":false,"eightd_has_key_dispenser":false,"rental_methods":["CREDITCARD","KEY"],"short_name":"E32004","lat":42.315692,"region_id":"10"},{"station_id":"128","station_type":"classic","name":"E Cottage St at Columbia Rd","external_id":"f834e534-0de8-11e7-991c-3863bb43a7d0","eightd_station_services":[],"lon":-71.06198,"legacy_id":"128","has_kiosk":true,"capacity":19,"electric_bike_surcharge_waiver":false,"eightd_has_key_dispenser":false,"rental_methods":["CREDITCARD","KEY"],"short_name":"C32018","lat":42.320561,"region_id":"10"},{"station_id":"129","station_type":"classic","name":"Hayes Square - Vine St at Moulton St","external_id":"f834e75d-0de8-11e7-991c-3863bb43a7d0","eightd_station_services":[],"lon":-71.056605,"legacy_id":"129","has_kiosk":true,"capacity":19,"electric_bike_surcharge_waiver":false,"eightd_has_key_dispenser":false,"rental_methods":["CREDITCARD","KEY"],"short_name":"D32026","lat":42.377022,"region_id":"10"},{"station_id":"130","station_type":"classic","name":"Uphams Corner","external_id":"f834ea45-0de8-11e7-991c-3863bb43a7d0","eightd_station_services":[],"lon":-71.06537003967787,"legacy_id":"130","has_kiosk":true,"capacity":15,"electric_bike_surcharge_waiver":false,"eightd_has_key_dispenser":false,"rental_methods":["CREDITCARD","KEY"],"short_name":"C32019","lat":42.31727474327453,"region_id":"10"},{"station_id":"131","station_type":"classic","name":"Jackson Square T Stop","external_id":"f834ec42-0de8-11e7-991c-3863bb43a7d0","eightd_station_services":[],"lon":-71.10014140605927,"legacy_id":"131","has_kiosk":true,"capacity":18,"electric_bike_surcharge_waiver":false,"eightd_has_key_dispenser":true,"rental_methods":["CREDITCARD","KEY"],"short_name":"E32006","lat":42.32293117195949,"region_id":"10"},{"station_id":"133","station_type":"classic","name":"Green Street T Stop - Green St at Amory St","external_id":"f834f036-0de8-11e7-991c-3863bb43a7d0","eightd_station_services":[],"lon":-71.107341,"legacy_id":"133","has_kiosk":true,"capacity":23,"electric_bike_surcharge_waiver":false,"eightd_has_key_dispenser":false,"rental_methods":["CREDITCARD","KEY"],"short_name":"E32005","lat":42.310579,"region_id":"10"},{"station_id":"135","station_type":"classic","name":"ID Building East","external_id":"f834f6a3-0de8-11e7-991c-3863bb43a7d0","eightd_station_services":[],"lon":-71.028664,"legacy_id":"135","has_kiosk":true,"capacity":17,"electric_bike_surcharge_waiver":false,"eightd_has_key_dispenser":false,"rental_methods":["CREDITCARD","KEY"],"short_name":"C32020","lat":42.344827,"region_id":"10"},{"station_id":"136","station_type":"classic","name":"ID Building West","external_id":"f834f814-0de8-11e7-991c-3863bb43a7d0","eightd_station_services":[],"lon":-71.031614,"legacy_id":"136","has_kiosk":true,"capacity":19,"electric_bike_surcharge_waiver":false,"eightd_has_key_dispenser":false,"rental_methods":["CREDITCARD","KEY"],"short_name":"C32021","lat":42.344796,"region_id":"10"},{"station_id":"137","station_type":"classic","name":"Magoun Square at Trum Field","external_id":"f834f8ca-0de8-11e7-991c-3863bb43a7d0","eightd_station_services":[],"lon":-71.10594004465383,"legacy_id":"137","has_kiosk":true,"capacity":19,"electric_bike_surcharge_waiver":false,"eightd_has_key_dispenser":false,"rental_methods":["CREDITCARD","KEY"],"short_name":"S32013","lat":42.39778339961249,"region_id":"9"},{"station_id":"138","station_type":"classic","name":"Newmarket Square T Stop - Massachusetts Ave at Newmarket Square","external_id":"f834f948-0de8-11e7-991c-3863bb43a7d0","eightd_station_services":[],"lon":-71.066498,"legacy_id":"138","has_kiosk":true,"capacity":15,"electric_bike_surcharge_waiver":false,"eightd_has_key_dispenser":false,"rental_methods":["CREDITCARD","KEY"],"short_name":"C32022","lat":42.326599,"region_id":"10"},{"station_id":"139","station_type":"classic","name":"Dana Park","external_id":"f834fb66-0de8-11e7-991c-3863bb43a7d0","eightd_station_services":[],"lon":-71.10809952020645,"legacy_id":"139","has_kiosk":true,"capacity":19,"electric_bike_surcharge_waiver":false,"eightd_has_key_dispenser":false,"rental_methods":["CREDITCARD","KEY"],"short_name":"M32030","lat":42.361780439606044,"region_id":"8"},{"station_id":"140","station_type":"classic","name":"Danehy Park","external_id":"f834fc57-0de8-11e7-991c-3863bb43a7d0","eightd_station_services":[],"lon":-71.132788,"legacy_id":"140","has_kiosk":true,"capacity":17,"electric_bike_surcharge_waiver":false,"eightd_has_key_dispenser":false,"rental_methods":["CREDITCARD","KEY"],"short_name":"M32031","lat":42.388966,"region_id":"8"},{"station_id":"141","station_type":"classic","name":"Kendall Street","external_id":"f834fcbe-0de8-11e7-991c-3863bb43a7d0","eightd_station_services":[],"lon":-71.08216792345047,"legacy_id":"141","has_kiosk":true,"capacity":15,"electric_bike_surcharge_waiver":false,"eightd_has_key_dispenser":false,"rental_methods":["CREDITCARD","KEY"],"short_name":"M32032","lat":42.363560158429884,"region_id":"8"},{"station_id":"142","station_type":"classic","name":"Alewife Station at Russell Field","external_id":"f834fd36-0de8-11e7-991c-3863bb43a7d0","eightd_station_services":[],"lon":-71.139459,"legacy_id":"142","has_kiosk":true,"capacity":23,"electric_bike_surcharge_waiver":false,"eightd_has_key_dispenser":false,"rental_methods":["CREDITCARD","KEY"],"short_name":"M32033","lat":42.396105,"region_id":"8"},{"station_id":"143","station_type":"classic","name":"EF - North Point Park","external_id":"f834fda2-0de8-11e7-991c-3863bb43a7d0","eightd_station_services":[],"lon":-71.069957,"legacy_id":"143","has_kiosk":true,"capacity":23,"electric_bike_surcharge_waiver":false,"eightd_has_key_dispenser":false,"rental_methods":["CREDITCARD","KEY"],"short_name":"M32034","lat":42.369885,"region_id":"8"},{"station_id":"144","station_type":"classic","name":"Rogers St & Land Blvd","external_id":"f834fede-0de8-11e7-991c-3863bb43a7d0","eightd_station_services":[],"lon":-71.07654601335526,"legacy_id":"144","has_kiosk":true,"capacity":19,"electric_bike_surcharge_waiver":false,"eightd_has_key_dispenser":false,"rental_methods":["CREDITCARD","KEY"],"short_name":"M32035","lat":42.366446738529454,"region_id":"8"},{"station_id":"145","station_type":"classic","name":"Rindge Avenue - O'Neill Library","external_id":"f834ff5a-0de8-11e7-991c-3863bb43a7d0","eightd_station_services":[],"lon":-71.129042,"legacy_id":"145","has_kiosk":true,"capacity":19,"electric_bike_surcharge_waiver":false,"eightd_has_key_dispenser":false,"rental_methods":["CREDITCARD","KEY"],"short_name":"M32036","lat":42.392766,"region_id":"8"},{"station_id":"146","station_type":"classic","name":"Murphy Skating Rink - 1880 Day Blvd","external_id":"f834ffc9-0de8-11e7-991c-3863bb43a7d0","eightd_station_services":[],"lon":-71.023739,"legacy_id":"146","has_kiosk":true,"capacity":19,"electric_bike_surcharge_waiver":false,"eightd_has_key_dispenser":false,"rental_methods":["CREDITCARD","KEY"],"short_name":"C32023","lat":42.336448,"region_id":"10"},{"station_id":"149","station_type":"classic","name":"175 N Harvard St","external_id":"f8350129-0de8-11e7-991c-3863bb43a7d0","eightd_station_services":[],"lon":-71.129164,"legacy_id":"149","has_kiosk":true,"capacity":18,"electric_bike_surcharge_waiver":false,"eightd_has_key_dispenser":true,"rental_methods":["CREDITCARD","KEY"],"short_name":"A32019","lat":42.363796,"region_id":"10"},{"station_id":"150","station_type":"classic","name":"State Street at Channel Center","external_id":"f8350199-0de8-11e7-991c-3863bb43a7d0","eightd_station_services":[],"lon":-71.052608,"legacy_id":"150","has_kiosk":true,"capacity":19,"electric_bike_surcharge_waiver":false,"eightd_has_key_dispenser":false,"rental_methods":["CREDITCARD","KEY"],"short_name":"C32024","lat":42.344137,"region_id":"10"},{"station_id":"151","station_type":"classic","name":"Surface Rd at India St","external_id":"f8350204-0de8-11e7-991c-3863bb43a7d0","eightd_station_services":[],"lon":-71.052163,"legacy_id":"151","has_kiosk":true,"capacity":19,"electric_bike_surcharge_waiver":false,"eightd_has_key_dispenser":false,"rental_methods":["CREDITCARD","KEY"],"short_name":"A32013","lat":42.358155,"region_id":"10"},{"station_id":"152","station_type":"classic","name":"Ink Block - Harrison Ave at Herald St","external_id":"f835027c-0de8-11e7-991c-3863bb43a7d0","eightd_station_services":[],"lon":-71.063187,"legacy_id":"152","has_kiosk":true,"capacity":27,"electric_bike_surcharge_waiver":false,"eightd_has_key_dispenser":true,"rental_methods":["CREDITCARD","KEY"],"short_name":"C32025","lat":42.345901,"region_id":"10"},{"station_id":"156","station_type":"classic","name":"Somerville Hospital","external_id":"f835043d-0de8-11e7-991c-3863bb43a7d0","eightd_station_services":[],"lon":-71.10856622457504,"legacy_id":"156","has_kiosk":true,"capacity":15,"electric_bike_surcharge_waiver":false,"eightd_has_key_dispenser":false,"rental_methods":["CREDITCARD","KEY"],"short_name":"S32020","lat":42.390446216041305,"region_id":"9"},{"station_id":"157","station_type":"classic","name":"Seaport Blvd at Sleeper St","external_id":"f8350a84-0de8-11e7-991c-3863bb43a7d0","eightd_station_services":[],"lon":-71.04817356923377,"legacy_id":"157","has_kiosk":true,"capacity":15,"electric_bike_surcharge_waiver":false,"eightd_has_key_dispenser":false,"rental_methods":["CREDITCARD","KEY"],"short_name":"C32036","lat":42.35317809186252,"region_id":"10"},{"station_id":"159","station_type":"classic","name":"S Huntington Ave at Heath St","external_id":"f8350b76-0de8-11e7-991c-3863bb43a7d0","eightd_station_services":[],"lon":-71.11089169979095,"legacy_id":"159","has_kiosk":true,"capacity":15,"electric_bike_surcharge_waiver":false,"eightd_has_key_dispenser":false,"rental_methods":["CREDITCARD","KEY"],"short_name":"E32007","lat":42.32760387040573,"region_id":"10"},{"station_id":"160","station_type":"classic","name":"Wentworth Institute of Technology - Huntington Ave at Vancouver St","external_id":"f8350be5-0de8-11e7-991c-3863bb43a7d0","eightd_station_services":[],"lon":-71.09627097845076,"legacy_id":"160","has_kiosk":true,"capacity":14,"electric_bike_surcharge_waiver":false,"eightd_has_key_dispenser":true,"rental_methods":["CREDITCARD","KEY"],"short_name":"B32021","lat":42.33758601097239,"region_id":"10"},{"station_id":"161","station_type":"classic","name":"W Broadway at D St","external_id":"f8350c56-0de8-11e7-991c-3863bb43a7d0","eightd_station_services":[],"lon":-71.0514432,"legacy_id":"161","has_kiosk":true,"capacity":23,"electric_bike_surcharge_waiver":false,"eightd_has_key_dispenser":true,"rental_methods":["CREDITCARD","KEY"],"short_name":"C32029","lat":42.3391085,"region_id":"10"},{"station_id":"162","station_type":"classic","name":"Franklin Park - Seaver St at Humboldt Ave","external_id":"f8350cc1-0de8-11e7-991c-3863bb43a7d0","eightd_station_services":[],"lon":-71.092225,"legacy_id":"162","has_kiosk":true,"capacity":15,"electric_bike_surcharge_waiver":false,"eightd_has_key_dispenser":false,"rental_methods":["CREDITCARD","KEY"],"short_name":"C32027","lat":42.309796,"region_id":"10"},{"station_id":"163","station_type":"classic","name":"The Lawn on D","external_id":"f8350d30-0de8-11e7-991c-3863bb43a7d0","eightd_station_services":[],"lon":-71.044024,"legacy_id":"163","has_kiosk":true,"capacity":19,"electric_bike_surcharge_waiver":false,"eightd_has_key_dispenser":true,"rental_methods":["CREDITCARD","KEY"],"short_name":"C32028","lat":42.344792,"region_id":"10"},{"station_id":"167","station_type":"classic","name":"Ryan Playground - Dorchester Ave at Harbor View St","external_id":"f8350ecf-0de8-11e7-991c-3863bb43a7d0","eightd_station_services":[],"lon":-71.056664,"legacy_id":"167","has_kiosk":true,"capacity":15,"electric_bike_surcharge_waiver":false,"eightd_has_key_dispenser":false,"rental_methods":["CREDITCARD","KEY"],"short_name":"C32031","lat":42.317642,"region_id":"10"},{"station_id":"169","station_type":"classic","name":"Edwards Playground - Main St at Eden St","external_id":"f8351019-0de8-11e7-991c-3863bb43a7d0","eightd_station_services":[],"lon":-71.068607,"legacy_id":"169","has_kiosk":true,"capacity":19,"electric_bike_surcharge_waiver":false,"eightd_has_key_dispenser":false,"rental_methods":["CREDITCARD","KEY"],"short_name":"A32022","lat":42.378965,"region_id":"10"},{"station_id":"170","station_type":"classic","name":"Franklin Park Zoo - Franklin Park Rd at Blue Hill Ave","external_id":"f835108b-0de8-11e7-991c-3863bb43a7d0","eightd_station_services":[],"lon":-71.085347,"legacy_id":"170","has_kiosk":true,"capacity":14,"electric_bike_surcharge_waiver":false,"eightd_has_key_dispenser":true,"rental_methods":["CREDITCARD","KEY"],"short_name":"C32030","lat":42.303469,"region_id":"10"},{"station_id":"171","station_type":"classic","name":"Bunker Hill Community College","external_id":"f83510fd-0de8-11e7-991c-3863bb43a7d0","eightd_station_services":[],"lon":-71.06905996799469,"legacy_id":"171","has_kiosk":true,"capacity":23,"electric_bike_surcharge_waiver":false,"eightd_has_key_dispenser":true,"rental_methods":["CREDITCARD","KEY"],"short_name":"A32023","lat":42.37408991426522,"region_id":"10"},{"station_id":"173","station_type":"classic","name":"Savin Hill T Stop - S Sydney St at Bay St","external_id":"f83511d4-0de8-11e7-991c-3863bb43a7d0","eightd_station_services":[],"lon":-71.0539,"legacy_id":"173","has_kiosk":true,"capacity":14,"electric_bike_surcharge_waiver":false,"eightd_has_key_dispenser":true,"rental_methods":["CREDITCARD","KEY"],"short_name":"C32033","lat":42.3106,"region_id":"10"},{"station_id":"174","station_type":"classic","name":"Washington St at Brock St","external_id":"f8351255-0de8-11e7-991c-3863bb43a7d0","eightd_station_services":[],"lon":-71.16031676530838,"legacy_id":"174","has_kiosk":true,"capacity":15,"electric_bike_surcharge_waiver":false,"eightd_has_key_dispenser":false,"rental_methods":["CREDITCARD","KEY"],"short_name":"D32029","lat":42.3489528466951,"region_id":"10"},{"station_id":"175","station_type":"classic","name":"Brighton Center - Washington St at Cambridge St","external_id":"f83512c9-0de8-11e7-991c-3863bb43a7d0","eightd_station_services":[],"lon":-71.15027189254761,"legacy_id":"175","has_kiosk":true,"capacity":17,"electric_bike_surcharge_waiver":false,"eightd_has_key_dispenser":true,"rental_methods":["CREDITCARD","KEY"],"short_name":"D32028","lat":42.34894857235593,"region_id":"10"},{"station_id":"176","station_type":"classic","name":"Lesley University","external_id":"f8351336-0de8-11e7-991c-3863bb43a7d0","eightd_station_services":[],"lon":-71.11901879310608,"legacy_id":"176","has_kiosk":true,"capacity":15,"electric_bike_surcharge_waiver":false,"eightd_has_key_dispenser":false,"rental_methods":["CREDITCARD","KEY"],"short_name":"M32039","lat":42.38674802045056,"region_id":"8"},{"station_id":"177","station_type":"classic","name":"University Park","external_id":"f83513a7-0de8-11e7-991c-3863bb43a7d0","eightd_station_services":[],"lon":-71.10006093978882,"legacy_id":"177","has_kiosk":true,"capacity":19,"electric_bike_surcharge_waiver":false,"eightd_has_key_dispenser":false,"rental_methods":["CREDITCARD","KEY"],"short_name":"M32040","lat":42.36264779118595,"region_id":"8"},{"station_id":"178","station_type":"classic","name":"MIT Pacific St at Purrington St","external_id":"f835141c-0de8-11e7-991c-3863bb43a7d0","eightd_station_services":[],"lon":-71.10129475593567,"legacy_id":"178","has_kiosk":true,"capacity":19,"electric_bike_surcharge_waiver":false,"eightd_has_key_dispenser":false,"rental_methods":["CREDITCARD","KEY"],"short_name":"M32041","lat":42.35957320109044,"region_id":"8"},{"station_id":"179","station_type":"classic","name":"MIT Vassar St","external_id":"f8351490-0de8-11e7-991c-3863bb43a7d0","eightd_station_services":[],"lon":-71.10394477844238,"legacy_id":"179","has_kiosk":true,"capacity":53,"electric_bike_surcharge_waiver":false,"eightd_has_key_dispenser":false,"rental_methods":["CREDITCARD","KEY"],"short_name":"M32042","lat":42.355601213279265,"region_id":"8"},{"station_id":"180","station_type":"classic","name":"Mt Auburn","external_id":"f83514f9-0de8-11e7-991c-3863bb43a7d0","eightd_station_services":[],"lon":-71.13320231437683,"legacy_id":"180","has_kiosk":true,"capacity":19,"electric_bike_surcharge_waiver":false,"eightd_has_key_dispenser":false,"rental_methods":["CREDITCARD","KEY"],"short_name":"M32043","lat":42.37478628706384,"region_id":"8"},{"station_id":"181","station_type":"classic","name":"Huron Ave At Vassal Lane","external_id":"f8351569-0de8-11e7-991c-3863bb43a7d0","eightd_station_services":[],"lon":-71.13426981498378,"legacy_id":"181","has_kiosk":true,"capacity":19,"electric_bike_surcharge_waiver":false,"eightd_has_key_dispenser":false,"rental_methods":["CREDITCARD","KEY"],"short_name":"M32044","lat":42.381650612901176,"region_id":"8"},{"station_id":"182","station_type":"classic","name":"Museum of Science","external_id":"f83515d8-0de8-11e7-991c-3863bb43a7d0","eightd_station_services":[],"lon":-71.07116281986237,"legacy_id":"182","has_kiosk":true,"capacity":19,"electric_bike_surcharge_waiver":false,"eightd_has_key_dispenser":true,"rental_methods":["CREDITCARD","KEY"],"short_name":"M32045","lat":42.36769018024484,"region_id":"8"},{"station_id":"183","station_type":"classic","name":"Alewife MBTA at Steel Place","external_id":"f8351649-0de8-11e7-991c-3863bb43a7d0","eightd_station_services":[],"lon":-71.14260613918304,"legacy_id":"183","has_kiosk":true,"capacity":19,"electric_bike_surcharge_waiver":false,"eightd_has_key_dispenser":false,"rental_methods":["CREDITCARD","KEY"],"short_name":"M32046","lat":42.395588457167094,"region_id":"8"},{"station_id":"184","station_type":"classic","name":"Sidney Research Campus/Erie Street at Waverly","external_id":"f83516b8-0de8-11e7-991c-3863bb43a7d0","eightd_station_services":[],"lon":-71.10393404960632,"legacy_id":"184","has_kiosk":true,"capacity":19,"electric_bike_surcharge_waiver":false,"eightd_has_key_dispenser":false,"rental_methods":["CREDITCARD","KEY"],"short_name":"M32047","lat":42.35775309465199,"region_id":"8"},{"station_id":"185","station_type":"classic","name":"Third at Binney","external_id":"f8351726-0de8-11e7-991c-3863bb43a7d0","eightd_station_services":[],"lon":-71.08277142047882,"legacy_id":"185","has_kiosk":true,"capacity":15,"electric_bike_surcharge_waiver":false,"eightd_has_key_dispenser":false,"rental_methods":["CREDITCARD","KEY"],"short_name":"M32048","lat":42.36544486137399,"region_id":"8"},{"station_id":"186","station_type":"classic","name":"Congress St at Northern Ave","external_id":"f8351791-0de8-11e7-991c-3863bb43a7d0","eightd_station_services":[],"lon":-71.03764,"legacy_id":"186","has_kiosk":true,"capacity":15,"electric_bike_surcharge_waiver":false,"eightd_has_key_dispenser":false,"rental_methods":["CREDITCARD","KEY"],"short_name":"C32032","lat":42.3481,"region_id":"10"},{"station_id":"187","station_type":"classic","name":"Cypress St at Clark Playground","external_id":"f83517fa-0de8-11e7-991c-3863bb43a7d0","eightd_station_services":[],"lon":-71.1253622174263,"legacy_id":"187","has_kiosk":true,"capacity":15,"electric_bike_surcharge_waiver":false,"eightd_has_key_dispenser":false,"rental_methods":["CREDITCARD","KEY"],"short_name":"K32009","lat":42.32784317478686,"region_id":"4"},{"station_id":"188","station_type":"classic","name":"Foss Park","external_id":"f8351dc2-0de8-11e7-991c-3863bb43a7d0","eightd_station_services":[],"lon":-71.09039425849915,"legacy_id":"188","has_kiosk":true,"capacity":15,"electric_bike_surcharge_waiver":false,"eightd_has_key_dispenser":false,"rental_methods":["CREDITCARD","KEY"],"short_name":"S32015","lat":42.39108438146733,"region_id":"9"},{"station_id":"189","station_type":"classic","name":"Kendall T","external_id":"f8351e42-0de8-11e7-991c-3863bb43a7d0","eightd_station_services":[],"lon":-71.08495473861694,"legacy_id":"189","has_kiosk":true,"capacity":23,"electric_bike_surcharge_waiver":false,"eightd_has_key_dispenser":true,"rental_methods":["CREDITCARD","KEY"],"short_name":"M32004","lat":42.362427842912396,"region_id":"8"},{"station_id":"190","station_type":"classic","name":"Nashua Street at Red Auerbach Way","external_id":"f8351eb0-0de8-11e7-991c-3863bb43a7d0","eightd_station_services":[{"service_type":"ATTENDED_SERVICE","id":"f8351eb0-0de8-11e7-991c-3863bb43a7d0","description":"","name":"Valet Service","bikes_availability":"UNLIMITED","link_for_more_info":"","off_dock_bikes_count":2,"docks_availability":"UNLIMITED","off_dock_remaining_bike_capacity":18,"schedule_description":""}],"lon":-71.064263,"legacy_id":"190","has_kiosk":true,"capacity":36,"electric_bike_surcharge_waiver":false,"eightd_has_key_dispenser":true,"rental_methods":["CREDITCARD","KEY"],"short_name":"A32025","lat":42.365673,"region_id":"10"},{"station_id":"191","station_type":"classic","name":"Tappan St at Brookline Hills MBTA","external_id":"f8351f1d-0de8-11e7-991c-3863bb43a7d0","eightd_station_services":[],"lon":-71.1268836054569,"legacy_id":"191","has_kiosk":true,"capacity":15,"electric_bike_surcharge_waiver":false,"eightd_has_key_dispenser":false,"rental_methods":["CREDITCARD","KEY"],"short_name":"K32008","lat":42.331370168043215,"region_id":"4"},{"station_id":"192","station_type":"classic","name":"Purchase St at Pearl St","external_id":"f8351f87-0de8-11e7-991c-3863bb43a7d0","eightd_station_services":[],"lon":-71.053181,"legacy_id":"192","has_kiosk":true,"capacity":19,"electric_bike_surcharge_waiver":false,"eightd_has_key_dispenser":false,"rental_methods":["CREDITCARD","KEY"],"short_name":"A32026","lat":42.354659,"region_id":"10"},{"station_id":"193","station_type":"classic","name":"Brookline Town Hall","external_id":"f8351ff1-0de8-11e7-991c-3863bb43a7d0","eightd_station_services":[],"lon":-71.12046446660315,"legacy_id":"193","has_kiosk":true,"capacity":15,"electric_bike_surcharge_waiver":false,"eightd_has_key_dispenser":true,"rental_methods":["CREDITCARD","KEY"],"short_name":"K32005","lat":42.33376472623494,"region_id":"4"},{"station_id":"194","station_type":"classic","name":"Broadway St at Mt Pleasant St","external_id":"f8352068-0de8-11e7-991c-3863bb43a7d0","eightd_station_services":[],"lon":-71.07828140258789,"legacy_id":"194","has_kiosk":true,"capacity":19,"electric_bike_surcharge_waiver":false,"eightd_has_key_dispenser":false,"rental_methods":["CREDITCARD","KEY"],"short_name":"S32014","lat":42.386141411639564,"region_id":"9"},{"station_id":"195","station_type":"classic","name":"Child Street at Brian P. Murphy Staircase","external_id":"f83520d8-0de8-11e7-991c-3863bb43a7d0","eightd_station_services":[],"lon":-71.07200495972165,"legacy_id":"195","has_kiosk":true,"capacity":23,"electric_bike_surcharge_waiver":false,"eightd_has_key_dispenser":false,"rental_methods":["CREDITCARD","KEY"],"short_name":"M32049","lat":42.371976784679745,"region_id":"8"},{"station_id":"196","station_type":"classic","name":"Roxbury YMCA - Warren St at MLK Blvd","external_id":"f8352150-0de8-11e7-991c-3863bb43a7d0","eightd_station_services":[],"lon":-71.08243077993393,"legacy_id":"196","has_kiosk":true,"capacity":10,"electric_bike_surcharge_waiver":false,"eightd_has_key_dispenser":true,"rental_methods":["CREDITCARD","KEY"],"short_name":"B32022","lat":42.31787329345602,"region_id":"10"},{"station_id":"197","station_type":"classic","name":"MLK Blvd at Washington St","external_id":"f8352219-0de8-11e7-991c-3863bb43a7d0","eightd_station_services":[],"lon":-71.09126061201096,"legacy_id":"197","has_kiosk":true,"capacity":15,"electric_bike_surcharge_waiver":false,"eightd_has_key_dispenser":false,"rental_methods":["CREDITCARD","KEY"],"short_name":"B32023","lat":42.32143814183195,"region_id":"10"},{"station_id":"199","station_type":"classic","name":"Uphams Corner T Stop - Magnolia St at Dudley St","external_id":"f8352306-0de8-11e7-991c-3863bb43a7d0","eightd_station_services":[],"lon":-71.0697814822197,"legacy_id":"199","has_kiosk":true,"capacity":15,"electric_bike_surcharge_waiver":false,"eightd_has_key_dispenser":false,"rental_methods":["CREDITCARD","KEY"],"short_name":"B32025","lat":42.318697341722434,"region_id":"10"},{"station_id":"200","station_type":"classic","name":"Washington St at Melnea Cass Blvd","external_id":"f8352378-0de8-11e7-991c-3863bb43a7d0","eightd_station_services":[],"lon":-71.081198,"legacy_id":"200","has_kiosk":true,"capacity":19,"electric_bike_surcharge_waiver":false,"eightd_has_key_dispenser":false,"rental_methods":["CREDITCARD","KEY"],"short_name":"B32026","lat":42.332817,"region_id":"10"},{"station_id":"201","station_type":"classic","name":"NCAAA - Walnut Ave at Crawford St","external_id":"f83523e3-0de8-11e7-991c-3863bb43a7d0","eightd_station_services":[],"lon":-71.091946,"legacy_id":"201","has_kiosk":true,"capacity":15,"electric_bike_surcharge_waiver":false,"eightd_has_key_dispenser":false,"rental_methods":["CREDITCARD","KEY"],"short_name":"B32027","lat":42.316902,"region_id":"10"},{"station_id":"202","station_type":"classic","name":"Grove Hall Library - 41 Geneva Ave","external_id":"f835244e-0de8-11e7-991c-3863bb43a7d0","eightd_station_services":[],"lon":-71.080952,"legacy_id":"202","has_kiosk":true,"capacity":15,"electric_bike_surcharge_waiver":false,"eightd_has_key_dispenser":false,"rental_methods":["CREDITCARD","KEY"],"short_name":"B32028","lat":42.30791,"region_id":"10"},{"station_id":"203","station_type":"classic","name":"Columbia Rd at Ceylon St","external_id":"f83524c0-0de8-11e7-991c-3863bb43a7d0","eightd_station_services":[],"lon":-71.0729,"legacy_id":"203","has_kiosk":true,"capacity":15,"electric_bike_surcharge_waiver":false,"eightd_has_key_dispenser":false,"rental_methods":["CREDITCARD","KEY"],"short_name":"B32029","lat":42.309572,"region_id":"10"},{"station_id":"204","station_type":"classic","name":"Walnut Ave at Warren St","external_id":"f8352534-0de8-11e7-991c-3863bb43a7d0","eightd_station_services":[],"lon":-71.083235,"legacy_id":"204","has_kiosk":true,"capacity":15,"electric_bike_surcharge_waiver":false,"eightd_has_key_dispenser":false,"rental_methods":["CREDITCARD","KEY"],"short_name":"B32030","lat":42.324081,"region_id":"10"},{"station_id":"205","station_type":"classic","name":"Bowdoin St at Quincy St","external_id":"f835259f-0de8-11e7-991c-3863bb43a7d0","eightd_station_services":[],"lon":-71.06512248516083,"legacy_id":"205","has_kiosk":true,"capacity":15,"electric_bike_surcharge_waiver":false,"eightd_has_key_dispenser":false,"rental_methods":["CREDITCARD","KEY"],"short_name":"B32031","lat":42.30785224238503,"region_id":"10"},{"station_id":"206","station_type":"classic","name":"Government Center - Cambridge St at Court St","external_id":"f835260c-0de8-11e7-991c-3863bb43a7d0","eightd_station_services":[],"lon":-71.05979576244862,"legacy_id":"206","has_kiosk":true,"capacity":35,"electric_bike_surcharge_waiver":false,"eightd_has_key_dispenser":true,"rental_methods":["CREDITCARD","KEY"],"short_name":"B32032","lat":42.3598253979878,"region_id":"10"},{"station_id":"208","station_type":"classic","name":"Oak Square - 615 Washington St","external_id":"f835288a-0de8-11e7-991c-3863bb43a7d0","eightd_station_services":[],"lon":-71.166491,"legacy_id":"208","has_kiosk":true,"capacity":15,"electric_bike_surcharge_waiver":false,"eightd_has_key_dispenser":true,"rental_methods":["CREDITCARD","KEY"],"short_name":"D32031","lat":42.35057,"region_id":"10"},{"station_id":"210","station_type":"classic","name":"Bennington St at Byron St","external_id":"f8352973-0de8-11e7-991c-3863bb43a7d0","eightd_station_services":[],"lon":-71.01619094610214,"legacy_id":"210","has_kiosk":true,"capacity":15,"electric_bike_surcharge_waiver":false,"eightd_has_key_dispenser":false,"rental_methods":["CREDITCARD","KEY"],"short_name":"A32028","lat":42.383532520117896,"region_id":"10"},{"station_id":"211","station_type":"classic","name":"Piers Park","external_id":"f83529e2-0de8-11e7-991c-3863bb43a7d0","eightd_station_services":[],"lon":-71.03528559207916,"legacy_id":"211","has_kiosk":true,"capacity":15,"electric_bike_surcharge_waiver":false,"eightd_has_key_dispenser":false,"rental_methods":["CREDITCARD","KEY"],"short_name":"A32029","lat":42.36501119822304,"region_id":"10"},{"station_id":"212","station_type":"classic","name":"Maverick Square - Lewis Mall","external_id":"f8352a4d-0de8-11e7-991c-3863bb43a7d0","eightd_station_services":[],"lon":-71.03977829217911,"legacy_id":"212","has_kiosk":true,"capacity":33,"electric_bike_surcharge_waiver":false,"eightd_has_key_dispenser":false,"rental_methods":["CREDITCARD","KEY"],"short_name":"A32030","lat":42.368844082898356,"region_id":"10"},{"station_id":"213","station_type":"classic","name":"East Boston Neighborhood Health Center - 20 Maverick Square","external_id":"f8352ac4-0de8-11e7-991c-3863bb43a7d0","eightd_station_services":[],"lon":-71.039431,"legacy_id":"213","has_kiosk":true,"capacity":16,"electric_bike_surcharge_waiver":false,"eightd_has_key_dispenser":true,"rental_methods":["CREDITCARD","KEY"],"short_name":"A32031","lat":42.369536,"region_id":"10"},{"station_id":"214","station_type":"classic","name":"Airport T Stop - Bremen St at Brooks St","external_id":"f8352b39-0de8-11e7-991c-3863bb43a7d0","eightd_station_services":[],"lon":-71.03128910064696,"legacy_id":"214","has_kiosk":true,"capacity":15,"electric_bike_surcharge_waiver":false,"eightd_has_key_dispenser":true,"rental_methods":["CREDITCARD","KEY"],"short_name":"A32032","lat":42.37534192670574,"region_id":"10"},{"station_id":"215","station_type":"classic","name":"The Eddy - New St at Sumner St","external_id":"f8352ba8-0de8-11e7-991c-3863bb43a7d0","eightd_station_services":[],"lon":-71.044201,"legacy_id":"215","has_kiosk":true,"capacity":15,"electric_bike_surcharge_waiver":false,"eightd_has_key_dispenser":false,"rental_methods":["CREDITCARD","KEY"],"short_name":"A32033","lat":42.370744,"region_id":"10"},{"station_id":"216","station_type":"classic","name":"Glendon St at Condor St","external_id":"f8352c1a-0de8-11e7-991c-3863bb43a7d0","eightd_station_services":[],"lon":-71.03024303913116,"legacy_id":"216","has_kiosk":true,"capacity":19,"electric_bike_surcharge_waiver":false,"eightd_has_key_dispenser":false,"rental_methods":["CREDITCARD","KEY"],"short_name":"A32034","lat":42.38240377674137,"region_id":"10"},{"station_id":"217","station_type":"classic","name":"Orient Heights T Stop - Bennington St at Saratoga St","external_id":"f8352c92-0de8-11e7-991c-3863bb43a7d0","eightd_station_services":[],"lon":-71.006098,"legacy_id":"217","has_kiosk":true,"capacity":19,"electric_bike_surcharge_waiver":false,"eightd_has_key_dispenser":false,"rental_methods":["CREDITCARD","KEY"],"short_name":"A32035","lat":42.386781,"region_id":"10"},{"station_id":"218","station_type":"classic","name":"Watermark Seaport - Boston Wharf Rd at Seaport Blvd","external_id":"f8353277-0de8-11e7-991c-3863bb43a7d0","eightd_station_services":[],"lon":-71.04569256305693,"legacy_id":"218","has_kiosk":true,"capacity":15,"electric_bike_surcharge_waiver":false,"eightd_has_key_dispenser":false,"rental_methods":["CREDITCARD","KEY"],"short_name":"C32034","lat":42.351586001198456,"region_id":"10"},{"station_id":"219","station_type":"classic","name":"Boston East - 126 Border St","external_id":"f83532fa-0de8-11e7-991c-3863bb43a7d0","eightd_station_services":[],"lon":-71.0410200806291,"legacy_id":"219","has_kiosk":true,"capacity":15,"electric_bike_surcharge_waiver":false,"eightd_has_key_dispenser":false,"rental_methods":["CREDITCARD","KEY"],"short_name":"A32036","lat":42.373312125824704,"region_id":"10"},{"station_id":"221","station_type":"classic","name":"Verizon Innovation Hub 10 Ware Street","external_id":"fbb9b58c-2b92-4bcf-8e4c-a982e40d2f39","eightd_station_services":[],"lon":-71.11305356025696,"legacy_id":"221","has_kiosk":true,"capacity":19,"electric_bike_surcharge_waiver":false,"eightd_has_key_dispenser":false,"rental_methods":["CREDITCARD","KEY"],"short_name":"M32050","lat":42.37250864997261,"region_id":"8"},{"station_id":"222","station_type":"classic","name":"Troy Boston","external_id":"83183df0-38c2-4ae8-a0c4-4b59599c9582","eightd_station_services":[],"lon":-71.062256,"legacy_id":"222","has_kiosk":true,"capacity":14,"electric_bike_surcharge_waiver":false,"eightd_has_key_dispenser":true,"rental_methods":["CREDITCARD","KEY"],"short_name":"C32035","lat":42.343749,"region_id":"10"},{"station_id":"224","station_type":"classic","name":"Fresh Pond Reservation","external_id":"1331197c-f6c6-4f4a-a29b-95e580359886","eightd_station_services":[],"lon":-71.143478951426,"legacy_id":"224","has_kiosk":true,"capacity":17,"electric_bike_surcharge_waiver":false,"eightd_has_key_dispenser":false,"rental_methods":["CREDITCARD","KEY"],"short_name":"M32051","lat":42.38267827521855,"region_id":"8"},{"station_id":"225","station_type":"classic","name":"Cambridge Dept. of Public Works -147 Hampshire St.","external_id":"7560f0e3-267b-4fb3-bbfa-6e02010cfcb7","eightd_station_services":[],"lon":-71.09759867191315,"legacy_id":"225","has_kiosk":true,"capacity":19,"electric_bike_surcharge_waiver":false,"eightd_has_key_dispenser":false,"rental_methods":["CREDITCARD","KEY"],"short_name":"M32052","lat":42.37119727759414,"region_id":"8"},{"station_id":"226","station_type":"classic","name":"Commonwealth Ave At Babcock St","external_id":"ea65c25f-0718-4f79-8588-c58b9fe3a105","eightd_station_services":[],"lon":-71.12126246094704,"legacy_id":"226","has_kiosk":true,"capacity":15,"electric_bike_surcharge_waiver":false,"eightd_has_key_dispenser":false,"rental_methods":["CREDITCARD","KEY"],"short_name":"K32006","lat":42.35154734791375,"region_id":"4"},{"station_id":"227","station_type":"classic","name":"Silber Way","external_id":"36f36eed-1070-49be-8b31-5676b8b3489f","eightd_station_services":[],"lon":-71.10057592391968,"legacy_id":"227","has_kiosk":true,"capacity":19,"electric_bike_surcharge_waiver":false,"eightd_has_key_dispenser":false,"rental_methods":["CREDITCARD","KEY"],"short_name":"D32032","lat":42.34949599514002,"region_id":"10"},{"station_id":"228","station_type":"classic","name":"One Memorial Drive","external_id":"a825b55d-3ab3-481f-9c50-d3a7313e6843","eightd_station_services":[],"lon":-71.0804355052096,"legacy_id":"228","has_kiosk":true,"capacity":19,"electric_bike_surcharge_waiver":false,"eightd_has_key_dispenser":false,"rental_methods":["CREDITCARD","KEY"],"short_name":"M32053","lat":42.361619320766856,"region_id":"8"},{"station_id":"232","station_type":"classic","name":"Four Corners - 157 Washington St","external_id":"31382324-2931-491a-827a-40149e45afee","eightd_station_services":[],"lon":-71.07929527759552,"legacy_id":"232","has_kiosk":true,"capacity":11,"electric_bike_surcharge_waiver":false,"eightd_has_key_dispenser":false,"rental_methods":["CREDITCARD","KEY"],"short_name":"C32037","lat":42.304127927390155,"region_id":"10"},{"station_id":"233","station_type":"classic","name":"St Mary's","external_id":"1cced911-b428-4cfd-81be-3a8f77ce7379","eightd_station_services":[],"lon":-71.10728681087494,"legacy_id":"233","has_kiosk":true,"capacity":15,"electric_bike_surcharge_waiver":false,"eightd_has_key_dispenser":false,"rental_methods":["CREDITCARD","KEY"],"short_name":"K32007","lat":42.346197076555455,"region_id":"4"},{"station_id":"234","station_type":"classic","name":"Broadway at Central St","external_id":"625f105e-4407-4988-9095-d1979cbda5e1","eightd_station_services":[],"lon":-71.09850591982195,"legacy_id":"234","has_kiosk":true,"capacity":19,"electric_bike_surcharge_waiver":false,"eightd_has_key_dispenser":false,"rental_methods":["CREDITCARD","KEY"],"short_name":"S32016","lat":42.39517150121575,"region_id":"9"},{"station_id":"235","station_type":"classic","name":"East Somerville Library (Broadway and Illinois)","external_id":"25cc602a-152a-4abe-9df8-a131d0a5d94b","eightd_station_services":[],"lon":-71.08318716287613,"legacy_id":"235","has_kiosk":true,"capacity":15,"electric_bike_surcharge_waiver":false,"eightd_has_key_dispenser":false,"rental_methods":["CREDITCARD","KEY"],"short_name":"S32017","lat":42.3876281075134,"region_id":"9"},{"station_id":"236","station_type":"classic","name":"Assembly Square T","external_id":"7c860828-3359-4229-b59b-963f5a4bab00","eightd_station_services":[],"lon":-71.07746601104736,"legacy_id":"236","has_kiosk":true,"capacity":15,"electric_bike_surcharge_waiver":false,"eightd_has_key_dispenser":true,"rental_methods":["CREDITCARD","KEY"],"short_name":"S32018","lat":42.392232840046276,"region_id":"9"},{"station_id":"239","station_type":"classic","name":"Community Path at Cedar Street","external_id":"7df1ee28-441e-44c1-8507-8f58946be96b","eightd_station_services":[],"lon":-71.11133694648743,"legacy_id":"239","has_kiosk":true,"capacity":15,"electric_bike_surcharge_waiver":false,"eightd_has_key_dispenser":false,"rental_methods":["CREDITCARD","KEY"],"short_name":"S32022","lat":42.39407223665884,"region_id":"9"},{"station_id":"255","station_type":"classic","name":"Park St at Norwell St","external_id":"103a9881-e30a-4d57-b81d-863b995ff759","eightd_station_services":[],"lon":-71.07821760713703,"legacy_id":"255","has_kiosk":true,"capacity":15,"electric_bike_surcharge_waiver":false,"eightd_has_key_dispenser":false,"rental_methods":["CREDITCARD","KEY"],"short_name":"C32039","lat":42.29442578670662,"region_id":"10"},{"station_id":"258","station_type":"classic","name":"Gallivan Blvd at Adams St","external_id":"0839bb10-e876-4198-95e4-0147a561853d","eightd_station_services":[],"lon":-71.05466698296368,"legacy_id":"258","has_kiosk":true,"capacity":15,"electric_bike_surcharge_waiver":false,"eightd_has_key_dispenser":false,"rental_methods":["CREDITCARD","KEY"],"short_name":"C32040","lat":42.28297567840305,"region_id":"10"},{"station_id":"259","station_type":"classic","name":"Washington St at Bowdoin St","external_id":"829fa5a8-cc88-4ab2-9f34-b481aaa1612e","eightd_station_services":[],"lon":-71.07345871645519,"legacy_id":"259","has_kiosk":true,"capacity":15,"electric_bike_surcharge_waiver":false,"eightd_has_key_dispenser":false,"rental_methods":["CREDITCARD","KEY"],"short_name":"C32042","lat":42.299164979365884,"region_id":"10"},{"station_id":"260","station_type":"classic","name":"Fields Corner T Stop","external_id":"8d893519-bc21-4536-b346-f558988bc8ad","eightd_station_services":[],"lon":-71.06068975823291,"legacy_id":"260","has_kiosk":true,"capacity":15,"electric_bike_surcharge_waiver":false,"eightd_has_key_dispenser":false,"rental_methods":["CREDITCARD","KEY"],"short_name":"C32041","lat":42.299633488420625,"region_id":"10"},{"station_id":"271","station_type":"classic","name":"Ashmont T Stop","external_id":"57caf362-1e8b-46aa-9ee3-82341c405ab0","eightd_station_services":[],"lon":-71.0641389,"legacy_id":"271","has_kiosk":true,"capacity":15,"electric_bike_surcharge_waiver":false,"eightd_has_key_dispenser":false,"rental_methods":["CREDITCARD","KEY"],"short_name":"C32062","lat":42.2856944,"region_id":"10"},{"station_id":"272","station_type":"classic","name":"Shawmut T Stop","external_id":"ea00f276-26dc-48ee-b2c8-6e56fd632a2d","eightd_station_services":[],"lon":-71.06575,"legacy_id":"272","has_kiosk":true,"capacity":19,"electric_bike_surcharge_waiver":false,"eightd_has_key_dispenser":false,"rental_methods":["CREDITCARD","KEY"],"short_name":"E32009","lat":42.292917,"region_id":"10"},{"station_id":"273","station_type":"classic","name":"Forest Hills","external_id":"4764641e-b080-4c70-a1e1-049de81e09d0","eightd_station_services":[],"lon":-71.114249,"legacy_id":"273","has_kiosk":true,"capacity":40,"electric_bike_surcharge_waiver":false,"eightd_has_key_dispenser":false,"rental_methods":["CREDITCARD","KEY"],"short_name":"E32010","lat":42.300923,"region_id":"10"},{"station_id":"279","station_type":"classic","name":"Williams St at Washington St","external_id":"c202f2ca-ec1d-4dc5-a734-e0a342f23ba4","eightd_station_services":[],"lon":-71.107669,"legacy_id":"279","has_kiosk":true,"capacity":23,"electric_bike_surcharge_waiver":false,"eightd_has_key_dispenser":false,"rental_methods":["CREDITCARD","KEY"],"short_name":"D32040","lat":42.306539,"region_id":"10"},{"station_id":"280","station_type":"classic","name":"Main St at Baldwin St","external_id":"7f68a70d-af0e-450a-b7a8-ce621cd0c8c1","eightd_station_services":[],"lon":-71.070629,"legacy_id":"280","has_kiosk":true,"capacity":19,"electric_bike_surcharge_waiver":false,"eightd_has_key_dispenser":false,"rental_methods":["CREDITCARD","KEY"],"short_name":"D32036","lat":42.380857,"region_id":"10"},{"station_id":"282","station_type":"classic","name":"Stony Brook T Stop","external_id":"c98f50f6-1901-4c64-b164-8cf33245e022","eightd_station_services":[],"lon":-71.104374,"legacy_id":"282","has_kiosk":true,"capacity":19,"electric_bike_surcharge_waiver":false,"eightd_has_key_dispenser":false,"rental_methods":["CREDITCARD","KEY"],"short_name":"D32041","lat":42.316966,"region_id":"10"},{"station_id":"296","station_type":"classic","name":"Farragut Rd at E. 6th St","external_id":"74cb9bf6-bb53-4c70-88d2-67998b99628c","eightd_station_services":[],"lon":-71.02495,"legacy_id":"296","has_kiosk":true,"capacity":22,"electric_bike_surcharge_waiver":false,"eightd_has_key_dispenser":false,"rental_methods":["CREDITCARD","KEY"],"short_name":"C32051","lat":42.3334,"region_id":"10"},{"station_id":"318","station_type":"classic","name":"Ames St at Broadway","external_id":"dd05a440-f881-410c-a071-864da11c634a","eightd_station_services":[],"lon":-71.0875672,"legacy_id":"318","has_kiosk":true,"capacity":19,"electric_bike_surcharge_waiver":false,"eightd_has_key_dispenser":false,"rental_methods":["CREDITCARD","KEY"],"short_name":"M32059","lat":42.3636929,"region_id":"8"},{"station_id":"319","station_type":"classic","name":"84 Cambridgepark Dr","external_id":"bd3d4824-7203-4edc-a314-cea2b413e886","eightd_station_services":[],"lon":-71.143941,"legacy_id":"319","has_kiosk":true,"capacity":27,"electric_bike_surcharge_waiver":false,"eightd_has_key_dispenser":false,"rental_methods":["CREDITCARD","KEY"],"short_name":"M32058","lat":42.3936,"region_id":"8"},{"station_id":"327","station_type":"classic","name":"Main St at Thompson Sq","external_id":"3dbbb3cb-b52d-46f8-8f9c-db11e83d081c","eightd_station_services":[],"lon":-71.06383498767171,"legacy_id":"327","has_kiosk":true,"capacity":15,"electric_bike_surcharge_waiver":false,"eightd_has_key_dispenser":false,"rental_methods":["CREDITCARD","KEY"],"short_name":"D32038","lat":42.374878467440965,"region_id":"10"},{"station_id":"328","station_type":"classic","name":"Grove St at Community Path","external_id":"baab0b05-a028-4147-8432-a2726c7e48ea","eightd_station_services":[],"lon":-71.12011306006025,"legacy_id":"328","has_kiosk":true,"capacity":15,"electric_bike_surcharge_waiver":false,"eightd_has_key_dispenser":false,"rental_methods":["CREDITCARD","KEY"],"short_name":"S32019","lat":42.396386809455,"region_id":"9"},{"station_id":"329","station_type":"classic","name":"Washington St at Myrtle St","external_id":"13681246-4bf8-444a-a908-fa165e4ad298","eightd_station_services":[],"lon":-71.0839523,"legacy_id":"329","has_kiosk":true,"capacity":15,"electric_bike_surcharge_waiver":false,"eightd_has_key_dispenser":false,"rental_methods":["CREDITCARD","KEY"],"short_name":"S32021","lat":42.3817508,"region_id":"9"},{"station_id":"330","station_type":"classic","name":"30 Dane St","external_id":"f2b83aa2-86cd-4904-a099-74bf2023f768","eightd_station_services":[],"lon":-71.10402522613185,"legacy_id":"330","has_kiosk":true,"capacity":15,"electric_bike_surcharge_waiver":false,"eightd_has_key_dispenser":false,"rental_methods":["CREDITCARD","KEY"],"short_name":"S32023","lat":42.38100143038052,"region_id":"9"},{"station_id":"331","station_type":"classic","name":"Huntington Ave at Mass Art","external_id":"5018e851-f2f3-4e18-9914-c316bbcc2c3d","eightd_station_services":[],"lon":-71.0988699646623,"legacy_id":"331","has_kiosk":true,"capacity":15,"electric_bike_surcharge_waiver":false,"eightd_has_key_dispenser":false,"rental_methods":["CREDITCARD","KEY"],"short_name":"B32033","lat":42.336585554561154,"region_id":"10"},{"station_id":"332","station_type":"classic","name":"Harvard Ave at Brainerd Rd","external_id":"bb27977d-36c1-496d-8bac-631b612dd7b8","eightd_station_services":[],"lon":-71.13022770741735,"legacy_id":"332","has_kiosk":true,"capacity":15,"electric_bike_surcharge_waiver":false,"eightd_has_key_dispenser":false,"rental_methods":["CREDITCARD","KEY"],"short_name":"D32035","lat":42.34953016890375,"region_id":"10"},{"station_id":"333","station_type":"classic","name":"699 Mt Auburn St","external_id":"93381e13-cd04-4e10-ac81-9f5926aa01d5","eightd_station_services":[],"lon":-71.14871613699506,"legacy_id":"333","has_kiosk":true,"capacity":25,"electric_bike_surcharge_waiver":false,"eightd_has_key_dispenser":false,"rental_methods":["CREDITCARD","KEY"],"short_name":"M32054","lat":42.37500235137831,"region_id":"8"},{"station_id":"334","station_type":"classic","name":"Mass Ave at Hadley/Walden","external_id":"1e3beeb4-f8e1-452c-93e5-48df78d4b313","eightd_station_services":[],"lon":-71.12260755160605,"legacy_id":"334","has_kiosk":true,"capacity":19,"electric_bike_surcharge_waiver":false,"eightd_has_key_dispenser":false,"rental_methods":["CREDITCARD","KEY"],"short_name":"M32056","lat":42.39120971915856,"region_id":"8"},{"station_id":"335","station_type":"classic","name":"Harvard St at Greene-Rose Heritage Park","external_id":"70f20fcb-8e63-4015-9007-b97c525ab0a9","eightd_station_services":[],"lon":-71.09522221614498,"legacy_id":"335","has_kiosk":true,"capacity":19,"electric_bike_surcharge_waiver":false,"eightd_has_key_dispenser":false,"rental_methods":["CREDITCARD","KEY"],"short_name":"M32055","lat":42.36599432867437,"region_id":"8"},{"station_id":"336","station_type":"classic","name":"Mattapan T Stop","external_id":"b5894555-30a3-46db-918a-fdeb083d6001","eightd_station_services":[],"lon":-71.093641,"legacy_id":"336","has_kiosk":true,"capacity":15,"electric_bike_surcharge_waiver":false,"eightd_has_key_dispenser":false,"rental_methods":["CREDITCARD","KEY"],"short_name":"C32045","lat":42.267902,"region_id":"10"},{"station_id":"337","station_type":"classic","name":"Roslindale Village - South St","external_id":"5b1d2661-8a93-4f14-b242-ebc52792f951","eightd_station_services":[],"lon":-71.127754,"legacy_id":"337","has_kiosk":true,"capacity":15,"electric_bike_surcharge_waiver":false,"eightd_has_key_dispenser":false,"rental_methods":["CREDITCARD","KEY"],"short_name":"C32047","lat":42.287072,"region_id":"10"},{"station_id":"338","station_type":"classic","name":"Commonwealth Ave at Kelton St","external_id":"0adccd89-1d8d-44da-9f7c-5f18acafeddf","eightd_station_services":[],"lon":-71.13997217276847,"legacy_id":"338","has_kiosk":true,"capacity":15,"electric_bike_surcharge_waiver":false,"eightd_has_key_dispenser":false,"rental_methods":["CREDITCARD","KEY"],"short_name":"D32034","lat":42.348358628170445,"region_id":"10"},{"station_id":"339","station_type":"classic","name":"Archdale Rd at Washington St","external_id":"1ef9964d-47ac-4cd4-916e-7c006fa1e605","eightd_station_services":[],"lon":-71.12119538714069,"legacy_id":"339","has_kiosk":true,"capacity":15,"electric_bike_surcharge_waiver":false,"eightd_has_key_dispenser":false,"rental_methods":["CREDITCARD","KEY"],"short_name":"C32048","lat":42.29266592872725,"region_id":"10"},{"station_id":"340","station_type":"classic","name":"Blue Hill Ave at Almont St","external_id":"e32c0bb9-e85b-4764-b0fb-5c582cfd3a90","eightd_station_services":[],"lon":-71.09372552493369,"legacy_id":"340","has_kiosk":true,"capacity":19,"electric_bike_surcharge_waiver":false,"eightd_has_key_dispenser":false,"rental_methods":["CREDITCARD","KEY"],"short_name":"C32044","lat":42.274620671812244,"region_id":"10"},{"station_id":"341","station_type":"classic","name":"Roslindale Village - Washington St","external_id":"aa964f5b-fadf-4fc1-8c91-84ee36e15f0d","eightd_station_services":[],"lon":-71.12820532182013,"legacy_id":"341","has_kiosk":true,"capacity":15,"electric_bike_surcharge_waiver":false,"eightd_has_key_dispenser":true,"rental_methods":["CREDITCARD","KEY"],"short_name":"C32046","lat":42.28630716010807,"region_id":"10"},{"station_id":"342","station_type":"classic","name":"Boylston St at Jersey St","external_id":"47c44bb1-d065-41f5-ad79-c18aee60af34","eightd_station_services":[],"lon":-71.09732501226972,"legacy_id":"342","has_kiosk":true,"capacity":15,"electric_bike_surcharge_waiver":false,"eightd_has_key_dispenser":false,"rental_methods":["CREDITCARD","KEY"],"short_name":"B32034","lat":42.344650628878306,"region_id":"10"},{"station_id":"343","station_type":"classic","name":"Morton St T","external_id":"b205d2bb-bb76-49ac-8d14-85eec5a874d3","eightd_station_services":[],"lon":-71.08617242434775,"legacy_id":"343","has_kiosk":true,"capacity":15,"electric_bike_surcharge_waiver":false,"eightd_has_key_dispenser":false,"rental_methods":["CREDITCARD","KEY"],"short_name":"C23045","lat":42.280725142920296,"region_id":"10"},{"station_id":"344","station_type":"classic","name":"Commonwealth Ave at Chiswick Rd","external_id":"51bb4381-dae4-4aeb-b213-0614b807be29","eightd_station_services":[],"lon":-71.15168806174552,"legacy_id":"344","has_kiosk":true,"capacity":19,"electric_bike_surcharge_waiver":false,"eightd_has_key_dispenser":false,"rental_methods":["CREDITCARD","KEY"],"short_name":"D32033","lat":42.34024644768889,"region_id":"10"},{"station_id":"345","station_type":"classic","name":"Park Plaza at Charles St S.","external_id":"df03c61a-29d7-445d-9980-d7f058916591","eightd_station_services":[],"lon":-71.06781138111728,"legacy_id":"345","has_kiosk":true,"capacity":19,"electric_bike_surcharge_waiver":false,"eightd_has_key_dispenser":false,"rental_methods":["CREDITCARD","KEY"],"short_name":"D32042","lat":42.351828068920675,"region_id":"10"},{"station_id":"346","station_type":"classic","name":"Cleveland Circle","external_id":"25a9114f-66f0-427c-920f-5526ca84f056","eightd_station_services":[],"lon":-71.15061519672052,"legacy_id":"346","has_kiosk":true,"capacity":15,"electric_bike_surcharge_waiver":false,"eightd_has_key_dispenser":false,"rental_methods":["CREDITCARD","KEY"],"short_name":"B32035","lat":42.335543083570826,"region_id":"10"},{"station_id":"347","station_type":"classic","name":"Thetford Ave at Norfolk St","external_id":"b0b8e427-7203-4844-9c70-129e08a74452","eightd_station_services":[],"lon":-71.07942931372236,"legacy_id":"347","has_kiosk":true,"capacity":15,"electric_bike_surcharge_waiver":false,"eightd_has_key_dispenser":false,"rental_methods":["CREDITCARD","KEY"],"short_name":"C32049","lat":42.286212948246096,"region_id":"10"},{"station_id":"348","station_type":"classic","name":"Talbot Ave At Blue Hill Ave","external_id":"97a1e4e7-a1ff-427a-aaea-48ca0d00bf9c","eightd_station_services":[],"lon":-71.087111,"legacy_id":"348","has_kiosk":true,"capacity":15,"electric_bike_surcharge_waiver":false,"eightd_has_key_dispenser":false,"rental_methods":["CREDITCARD","KEY"],"short_name":"C32043","lat":42.2945833,"region_id":"10"},{"station_id":"349","station_type":"classic","name":"Washington St at Talbot Ave","external_id":"eb8824c3-9c84-4fec-8d6f-d537c8ab3beb","eightd_station_services":[],"lon":-71.071806,"legacy_id":"349","has_kiosk":true,"capacity":17,"electric_bike_surcharge_waiver":false,"eightd_has_key_dispenser":true,"rental_methods":["CREDITCARD","KEY"],"short_name":"C32038","lat":42.290333,"region_id":"10"},{"station_id":"350","station_type":"classic","name":"Codman Square Library","external_id":"ccf82572-a142-4378-9a4b-5a51fcb4ef81","eightd_station_services":[],"lon":-71.071111,"legacy_id":"350","has_kiosk":true,"capacity":17,"electric_bike_surcharge_waiver":false,"eightd_has_key_dispenser":false,"rental_methods":["CREDITCARD","KEY"],"short_name":"C32055","lat":42.2873611,"region_id":"10"},{"station_id":"351","station_type":"classic","name":"Faneuil St at Arlington St","external_id":"83852166-6e71-4f69-ba83-020a4c644b86","eightd_station_services":[],"lon":-71.15988485533308,"legacy_id":"351","has_kiosk":true,"capacity":15,"electric_bike_surcharge_waiver":false,"eightd_has_key_dispenser":false,"rental_methods":["CREDITCARD","KEY"],"short_name":"A32038","lat":42.35276620545606,"region_id":"10"},{"station_id":"352","station_type":"classic","name":"Ring Rd","external_id":"548b9fdd-c5a1-4638-8e45-36cf549591be","eightd_station_services":[],"lon":-71.08044855314802,"legacy_id":"352","has_kiosk":true,"capacity":15,"electric_bike_surcharge_waiver":false,"eightd_has_key_dispenser":false,"rental_methods":["CREDITCARD","KEY"],"short_name":"C32058","lat":42.348278385426255,"region_id":"10"},